__time,/amcl_pose/header/seq,/amcl_pose/header/stamp,/amcl_pose/pose/covariance[0;0],/amcl_pose/pose/covariance[0;1],/amcl_pose/pose/covariance[0;2],/amcl_pose/pose/covariance[0;3],/amcl_pose/pose/covariance[0;4],/amcl_pose/pose/covariance[0;5],/amcl_pose/pose/covariance[1;1],/amcl_pose/pose/covariance[1;2],/amcl_pose/pose/covariance[1;3],/amcl_pose/pose/covariance[1;4],/amcl_pose/pose/covariance[1;5],/amcl_pose/pose/covariance[2;2],/amcl_pose/pose/covariance[2;3],/amcl_pose/pose/covariance[2;4],/amcl_pose/pose/covariance[2;5],/amcl_pose/pose/covariance[3;3],/amcl_pose/pose/covariance[3;4],/amcl_pose/pose/covariance[3;5],/amcl_pose/pose/covariance[4;4],/amcl_pose/pose/covariance[4;5],/amcl_pose/pose/covariance[5;5],/amcl_pose/pose/pose/orientation/pitch_deg,/amcl_pose/pose/pose/orientation/roll_deg,/amcl_pose/pose/pose/orientation/w,/amcl_pose/pose/pose/orientation/x,/amcl_pose/pose/pose/orientation/y,/amcl_pose/pose/pose/orientation/yaw_deg,/amcl_pose/pose/pose/orientation/z,/amcl_pose/pose/pose/position/x,/amcl_pose/pose/pose/position/y,/amcl_pose/pose/pose/position/z,/odom/header/seq,/odom/header/stamp,/odom/pose/covariance[0;0],/odom/pose/covariance[0;1],/odom/pose/covariance[0;2],/odom/pose/covariance[0;3],/odom/pose/covariance[0;4],/odom/pose/covariance[0;5],/odom/pose/covariance[1;1],/odom/pose/covariance[1;2],/odom/pose/covariance[1;3],/odom/pose/covariance[1;4],/odom/pose/covariance[1;5],/odom/pose/covariance[2;2],/odom/pose/covariance[2;3],/odom/pose/covariance[2;4],/odom/pose/covariance[2;5],/odom/pose/covariance[3;3],/odom/pose/covariance[3;4],/odom/pose/covariance[3;5],/odom/pose/covariance[4;4],/odom/pose/covariance[4;5],/odom/pose/covariance[5;5],/odom/pose/pose/orientation/pitch_deg,/odom/pose/pose/orientation/roll_deg,/odom/pose/pose/orientation/w,/odom/pose/pose/orientation/x,/odom/pose/pose/orientation/y,/odom/pose/pose/orientation/yaw_deg,/odom/pose/pose/orientation/z,/odom/pose/pose/position/x,/odom/pose/pose/position/y,/odom/pose/pose/position/z,/odom/twist/covariance[0;0],/odom/twist/covariance[0;1],/odom/twist/covariance[0;2],/odom/twist/covariance[0;3],/odom/twist/covariance[0;4],/odom/twist/covariance[0;5],/odom/twist/covariance[1;1],/odom/twist/covariance[1;2],/odom/twist/covariance[1;3],/odom/twist/covariance[1;4],/odom/twist/covariance[1;5],/odom/twist/covariance[2;2],/odom/twist/covariance[2;3],/odom/twist/covariance[2;4],/odom/twist/covariance[2;5],/odom/twist/covariance[3;3],/odom/twist/covariance[3;4],/odom/twist/covariance[3;5],/odom/twist/covariance[4;4],/odom/twist/covariance[4;5],/odom/twist/covariance[5;5],/odom/twist/twist/angular/x,/odom/twist/twist/angular/y,/odom/twist/twist/angular/z,/odom/twist/twist/linear/x,/odom/twist/twist/linear/y,/odom/twist/twist/linear/z,/odometry/filtered/header/seq,/odometry/filtered/header/stamp,/odometry/filtered/pose/covariance[0;0],/odometry/filtered/pose/covariance[0;1],/odometry/filtered/pose/covariance[0;2],/odometry/filtered/pose/covariance[0;3],/odometry/filtered/pose/covariance[0;4],/odometry/filtered/pose/covariance[0;5],/odometry/filtered/pose/covariance[1;1],/odometry/filtered/pose/covariance[1;2],/odometry/filtered/pose/covariance[1;3],/odometry/filtered/pose/covariance[1;4],/odometry/filtered/pose/covariance[1;5],/odometry/filtered/pose/covariance[2;2],/odometry/filtered/pose/covariance[2;3],/odometry/filtered/pose/covariance[2;4],/odometry/filtered/pose/covariance[2;5],/odometry/filtered/pose/covariance[3;3],/odometry/filtered/pose/covariance[3;4],/odometry/filtered/pose/covariance[3;5],/odometry/filtered/pose/covariance[4;4],/odometry/filtered/pose/covariance[4;5],/odometry/filtered/pose/covariance[5;5],/odometry/filtered/pose/pose/orientation/pitch_deg,/odometry/filtered/pose/pose/orientation/roll_deg,/odometry/filtered/pose/pose/orientation/w,/odometry/filtered/pose/pose/orientation/x,/odometry/filtered/pose/pose/orientation/y,/odometry/filtered/pose/pose/orientation/yaw_deg,/odometry/filtered/pose/pose/orientation/z,/odometry/filtered/pose/pose/position/x,/odometry/filtered/pose/pose/position/y,/odometry/filtered/pose/pose/position/z,/odometry/filtered/twist/covariance[0;0],/odometry/filtered/twist/covariance[0;1],/odometry/filtered/twist/covariance[0;2],/odometry/filtered/twist/covariance[0;3],/odometry/filtered/twist/covariance[0;4],/odometry/filtered/twist/covariance[0;5],/odometry/filtered/twist/covariance[1;1],/odometry/filtered/twist/covariance[1;2],/odometry/filtered/twist/covariance[1;3],/odometry/filtered/twist/covariance[1;4],/odometry/filtered/twist/covariance[1;5],/odometry/filtered/twist/covariance[2;2],/odometry/filtered/twist/covariance[2;3],/odometry/filtered/twist/covariance[2;4],/odometry/filtered/twist/covariance[2;5],/odometry/filtered/twist/covariance[3;3],/odometry/filtered/twist/covariance[3;4],/odometry/filtered/twist/covariance[3;5],/odometry/filtered/twist/covariance[4;4],/odometry/filtered/twist/covariance[4;5],/odometry/filtered/twist/covariance[5;5],/odometry/filtered/twist/twist/angular/x,/odometry/filtered/twist/twist/angular/y,/odometry/filtered/twist/twist/angular/z,/odometry/filtered/twist/twist/linear/x,/odometry/filtered/twist/twist/linear/y,/odometry/filtered/twist/twist/linear/z
1666146487.094638,,,,,,,,,,,,,,,,,,,,,,,,,,,,,,,,,,48876.000000,1663128462.080698,0.001000,0.000000,0.000000,0.000000,0.000000,0.000000,0.001000,0.000000,0.000000,0.000000,0.000000,1000000.000000,0.000000,0.000000,0.000000,1000000.000000,0.000000,0.000000,1000000.000000,0.000000,0.030000,0.000000,0.000000,0.999518,0.000000,0.000000,3.558362,0.031048,23.233673,5.568835,0.000000,0.001000,0.000000,0.000000,0.000000,0.000000,0.000000,0.001000,0.000000,0.000000,0.000000,0.000000,1000000.000000,0.000000,0.000000,0.000000,1000000.000000,0.000000,0.000000,1000000.000000,0.000000,0.030000,0.000000,0.000000,-0.003158,0.550000,0.000000,0.000000,,,,,,,,,,,,,,,,,,,,,,,,,,,,,,,,,,,,,,,,,,,,,,,,,,,,,,,,,,,,
1666146487.118512,,,,,,,,,,,,,,,,,,,,,,,,,,,,,,,,,,,,,,,,,,,,,,,,,,,,,,,,,,,,,,,,,,,,,,,,,,,,,,,,,,,,,,,,,,,,,,55986.000000,1663128462.097698,30.412244,0.001766,0.000000,0.000000,0.000000,0.000000,30.409373,0.000000,0.000000,0.000000,0.000000,0.000000,0.000000,-0.000000,0.000000,0.000000,0.000000,0.000000,0.000000,0.000000,0.000000,0.000000,0.000000,0.588434,0.000000,0.000000,107.908135,0.808546,0.244170,10.997089,0.000000,0.001370,0.000000,0.000000,0.000000,0.000000,0.000000,0.001370,0.000000,0.000000,0.000000,0.000000,0.000000,0.000000,-0.000000,0.000000,0.000000,0.000000,0.000000,0.000000,0.000000,0.001893,0.000000,0.000000,-0.022875,0.462669,0.009142,0.000000
1666146487.118871,,,,,,,,,,,,,,,,,,,,,,,,,,,,,,,,,,,,,,,,,,,,,,,,,,,,,,,,,,,,,,,,,,,,,,,,,,,,,,,,,,,,,,,,,,,,,,55987.000000,1663128462.108698,30.412795,0.001766,0.000000,0.000000,0.000000,0.000000,30.409924,0.000000,0.000000,0.000000,0.000000,0.000000,0.000000,-0.000000,0.000000,0.000000,0.000000,0.000000,0.000000,0.000000,0.000000,0.000000,0.000000,0.589392,0.000000,0.000000,107.772232,0.807847,0.242584,11.001808,0.000000,0.001647,0.000000,0.000000,0.000000,0.000000,0.000000,0.001647,0.000000,0.000000,0.000000,0.000000,0.000000,0.000000,-0.000000,0.000000,0.000000,0.000000,0.000000,0.000000,0.000000,0.001948,0.000000,0.000000,-0.023469,0.455714,0.009515,0.000000
1666146487.138771,,,,,,,,,,,,,,,,,,,,,,,,,,,,,,,,,,,,,,,,,,,,,,,,,,,,,,,,,,,,,,,,,,,,,,,,,,,,,,,,,,,,,,,,,,,,,,55988.000000,1663128462.119698,30.413344,0.001766,0.000000,0.000000,0.000000,0.000000,30.410473,0.000000,0.000000,0.000000,0.000000,0.000000,0.000000,-0.000000,0.000000,0.000000,0.000000,0.000000,0.000000,0.000000,0.000000,0.000000,0.000000,0.590377,0.000000,0.000000,107.632449,0.807128,0.240281,11.009711,0.000000,0.000492,0.000000,0.000000,0.000000,0.000000,0.000000,0.000492,0.000000,0.000000,0.000000,0.000000,0.000000,0.000000,-0.000000,0.000000,0.000000,0.000000,0.000000,0.000000,0.000000,0.001649,0.000000,0.000000,-0.019989,0.526801,0.002727,0.000000
1666146487.142421,,,,,,,,,,,,,,,,,,,,,,,,,,,,,,,,,,48878.000000,1663128462.102698,0.001000,0.000000,0.000000,0.000000,0.000000,0.000000,0.001000,0.000000,0.000000,0.000000,0.000000,1000000.000000,0.000000,0.000000,0.000000,1000000.000000,0.000000,0.000000,1000000.000000,0.000000,0.030000,0.000000,0.000000,0.999609,0.000000,0.000000,3.206546,0.027979,23.244605,5.569465,0.000000,0.001000,0.000000,0.000000,0.000000,0.000000,0.000000,0.001000,0.000000,0.000000,0.000000,0.000000,1000000.000000,0.000000,0.000000,0.000000,1000000.000000,0.000000,0.000000,1000000.000000,0.000000,0.030000,0.000000,0.000000,-0.003158,0.540000,0.000000,0.000000,,,,,,,,,,,,,,,,,,,,,,,,,,,,,,,,,,,,,,,,,,,,,,,,,,,,,,,,,,,,
1666146487.142451,,,,,,,,,,,,,,,,,,,,,,,,,,,,,,,,,,48880.000000,1663128462.124698,0.001000,0.000000,0.000000,0.000000,0.000000,0.000000,0.001000,0.000000,0.000000,0.000000,0.000000,1000000.000000,0.000000,0.000000,0.000000,1000000.000000,0.000000,0.000000,1000000.000000,0.000000,0.030000,0.000000,0.000000,0.999690,0.000000,0.000000,2.854730,0.024910,23.255440,5.570022,0.000000,0.001000,0.000000,0.000000,0.000000,0.000000,0.000000,0.001000,0.000000,0.000000,0.000000,0.000000,1000000.000000,0.000000,0.000000,0.000000,1000000.000000,0.000000,0.000000,1000000.000000,0.000000,0.030000,0.000000,0.000000,-0.003158,0.550000,0.000000,0.000000,,,,,,,,,,,,,,,,,,,,,,,,,,,,,,,,,,,,,,,,,,,,,,,,,,,,,,,,,,,,
1666146487.182617,,,,,,,,,,,,,,,,,,,,,,,,,,,,,,,,,,,,,,,,,,,,,,,,,,,,,,,,,,,,,,,,,,,,,,,,,,,,,,,,,,,,,,,,,,,,,,55991.000000,1663128462.157698,30.415244,0.001766,0.000000,0.000000,0.000000,-0.000000,30.412373,0.000000,0.000000,0.000000,-0.000000,0.000001,0.000000,-0.000000,0.000000,0.000001,0.000000,0.000000,0.000001,0.000000,0.000300,0.000000,0.000000,0.593337,0.000000,0.000000,107.211692,0.804954,0.234033,11.029534,0.000000,0.000395,0.000000,0.000000,0.000000,0.000000,0.000000,0.000395,0.000000,0.000000,0.000000,0.000000,0.000001,0.000000,-0.000000,0.000000,0.000001,0.000000,0.000000,0.000001,0.000000,0.001646,0.000000,0.000000,-0.018595,0.548990,0.002057,0.000000
1666146487.182655,,,,,,,,,,,,,,,,,,,,,,,,,,,,,,,,,,,,,,,,,,,,,,,,,,,,,,,,,,,,,,,,,,,,,,,,,,,,,,,,,,,,,,,,,,,,,,55992.000000,1663128462.163698,30.415544,0.001766,0.000000,0.000000,0.000000,-0.000000,30.412673,0.000000,0.000000,0.000000,-0.000000,0.000000,0.000000,-0.000000,0.000000,0.000000,0.000000,0.000000,0.000000,0.000000,0.000000,0.000000,0.000000,0.594322,0.000000,0.000000,107.071399,0.804227,0.233073,11.032668,0.000000,0.000545,0.000000,0.000000,0.000000,0.000000,0.000000,0.000545,0.000000,0.000000,0.000000,0.000000,0.000000,0.000000,-0.000000,0.000000,0.000000,0.000000,0.000000,0.000000,0.000000,0.001649,0.000000,0.000000,-0.019606,0.545774,0.002137,0.000000
1666146487.186532,,,,,,,,,,,,,,,,,,,,,,,,,,,,,,,,,,48883.000000,1663128462.168698,0.001000,0.000000,0.000000,0.000000,0.000000,0.000000,0.001000,0.000000,0.000000,0.000000,0.000000,1000000.000000,0.000000,0.000000,0.000000,1000000.000000,0.000000,0.000000,1000000.000000,0.000000,0.030000,0.000000,0.000000,0.999788,0.000000,0.000000,2.362187,0.020613,23.272573,5.570780,0.000000,0.001000,0.000000,0.000000,0.000000,0.000000,0.000000,0.001000,0.000000,0.000000,0.000000,0.000000,1000000.000000,0.000000,0.000000,0.000000,1000000.000000,0.000000,0.000000,1000000.000000,0.000000,0.030000,0.000000,0.000000,-0.003158,0.590000,0.000000,0.000000,,,,,,,,,,,,,,,,,,,,,,,,,,,,,,,,,,,,,,,,,,,,,,,,,,,,,,,,,,,,
1666146487.189936,,,,,,,,,,,,,,,,,,,,,,,,,,,,,,,,,,48884.000000,1663128462.179698,0.001000,0.000000,0.000000,0.000000,0.000000,0.000000,0.001000,0.000000,0.000000,0.000000,0.000000,1000000.000000,0.000000,0.000000,0.000000,1000000.000000,0.000000,0.000000,1000000.000000,0.000000,0.030000,0.000000,0.000000,0.999819,0.000000,0.000000,2.181253,0.019034,23.278469,5.571005,0.000000,0.001000,0.000000,0.000000,0.000000,0.000000,0.000000,0.001000,0.000000,0.000000,0.000000,0.000000,1000000.000000,0.000000,0.000000,0.000000,1000000.000000,0.000000,0.000000,1000000.000000,0.000000,0.030000,0.000000,0.000000,-0.003158,0.590000,0.000000,0.000000,,,,,,,,,,,,,,,,,,,,,,,,,,,,,,,,,,,,,,,,,,,,,,,,,,,,,,,,,,,,
1666146487.202356,,,,,,,,,,,,,,,,,,,,,,,,,,,,,,,,,,48885.000000,1663128462.190698,0.001000,0.000000,0.000000,0.000000,0.000000,0.000000,0.001000,0.000000,0.000000,0.000000,0.000000,1000000.000000,0.000000,0.000000,0.000000,1000000.000000,0.000000,0.000000,1000000.000000,0.000000,0.030000,0.000000,0.000000,0.999851,0.000000,0.000000,1.980215,0.017280,23.284366,5.571208,0.000000,0.001000,0.000000,0.000000,0.000000,0.000000,0.000000,0.001000,0.000000,0.000000,0.000000,0.000000,1000000.000000,0.000000,0.000000,0.000000,1000000.000000,0.000000,0.000000,1000000.000000,0.000000,0.030000,0.000000,0.000000,-0.003509,0.590000,0.000000,0.000000,,,,,,,,,,,,,,,,,,,,,,,,,,,,,,,,,,,,,,,,,,,,,,,,,,,,,,,,,,,,
1666146487.226750,,,,,,,,,,,,,,,,,,,,,,,,,,,,,,,,,,,,,,,,,,,,,,,,,,,,,,,,,,,,,,,,,,,,,,,,,,,,,,,,,,,,,,,,,,,,,,55996.000000,1663128462.207698,30.417745,0.001766,0.000000,0.000000,0.000000,-0.000000,30.414874,0.000000,0.000000,0.000000,-0.000000,0.000000,0.000000,-0.000000,0.000000,0.000000,0.000000,0.000000,0.000000,0.000000,0.000000,0.000000,0.000000,0.600138,0.000000,0.000000,106.240437,0.799896,0.225674,11.057096,0.000000,0.000433,0.000000,0.000000,0.000000,0.000000,0.000000,0.000433,0.000000,0.000000,0.000000,0.000000,0.000000,0.000000,-0.000000,0.000000,0.000000,0.000000,0.000000,0.000000,0.000000,0.001603,0.000000,0.000000,-0.020568,0.578524,0.002394,0.000000
1666146487.242767,,,,,,,,,,,,,,,,,,,,,,,,,,,,,,,,,,48888.000000,1663128462.223698,0.001000,0.000000,0.000000,0.000000,0.000000,0.000000,0.001000,0.000000,0.000000,0.000000,0.000000,1000000.000000,0.000000,0.000000,0.000000,1000000.000000,0.000000,0.000000,1000000.000000,0.000000,0.030000,0.000000,0.000000,0.999930,0.000000,0.000000,1.356998,0.011842,23.302659,5.571707,0.000000,0.001000,0.000000,0.000000,0.000000,0.000000,0.000000,0.001000,0.000000,0.000000,0.000000,0.000000,1000000.000000,0.000000,0.000000,0.000000,1000000.000000,0.000000,0.000000,1000000.000000,0.000000,0.030000,0.000000,0.000000,-0.003684,0.615000,0.000000,0.000000,,,,,,,,,,,,,,,,,,,,,,,,,,,,,,,,,,,,,,,,,,,,,,,,,,,,,,,,,,,,
1666146487.270641,,,,,,,,,,,,,,,,,,,,,,,,,,,,,,,,,,,,,,,,,,,,,,,,,,,,,,,,,,,,,,,,,,,,,,,,,,,,,,,,,,,,,,,,,,,,,,55999.000000,1663128462.240698,30.419396,0.001766,0.000000,0.000000,0.000000,0.000000,30.416525,0.000000,0.000000,0.000000,0.000000,0.000000,0.000000,-0.000000,0.000000,0.000000,0.000000,0.000000,0.000000,0.000000,0.000000,0.000000,0.000000,0.603995,0.000000,0.000000,105.686946,0.796988,0.220192,11.075833,0.000000,0.001060,0.000000,0.000000,0.000000,0.000000,0.000000,0.001060,0.000000,0.000000,0.000000,0.000000,0.000000,0.000000,-0.000000,0.000000,0.000000,0.000000,0.000000,0.000000,0.000000,0.001793,0.000000,0.000000,-0.023921,0.577491,0.005401,0.000000
1666146487.270678,,,,,,,,,,,,,,,,,,,,,,,,,,,,,,,,,,,,,,,,,,,,,,,,,,,,,,,,,,,,,,,,,,,,,,,,,,,,,,,,,,,,,,,,,,,,,,56000.000000,1663128462.251698,30.419946,0.001766,0.000000,0.000000,0.000000,0.000000,30.417076,0.000000,0.000000,0.000000,0.000000,0.000000,0.000000,-0.000000,0.000000,0.000000,0.000000,0.000000,0.000000,0.000000,0.000000,0.000000,0.000000,0.605315,0.000000,0.000000,105.497019,0.795986,0.218426,11.081907,0.000000,0.001336,0.000000,0.000000,0.000000,0.000000,0.000000,0.001336,0.000000,0.000000,0.000000,0.000000,0.000000,0.000000,-0.000000,0.000000,0.000000,0.000000,0.000000,0.000000,0.000000,0.001863,0.000000,0.000000,-0.025340,0.572050,0.006575,0.000000
1666146487.286641,,,,,,,,,,,,,,,,,,,,,,,,,,,,,,,,,,48891.000000,1663128462.267698,0.001000,0.000000,0.000000,0.000000,0.000000,0.000000,0.001000,0.000000,0.000000,0.000000,0.000000,1000000.000000,0.000000,0.000000,0.000000,1000000.000000,0.000000,0.000000,1000000.000000,0.000000,0.030000,0.000000,0.000000,0.999979,0.000000,0.000000,0.733780,0.006403,23.321156,5.572012,0.000000,0.001000,0.000000,0.000000,0.000000,0.000000,0.000000,0.001000,0.000000,0.000000,0.000000,0.000000,1000000.000000,0.000000,0.000000,0.000000,1000000.000000,0.000000,0.000000,1000000.000000,0.000000,0.030000,0.000000,0.000000,-0.003860,0.630000,0.000000,0.000000,,,,,,,,,,,,,,,,,,,,,,,,,,,,,,,,,,,,,,,,,,,,,,,,,,,,,,,,,,,,
1666146487.314685,,,,,,,,,,,,,,,,,,,,,,,,,,,,,,,,,,,,,,,,,,,,,,,,,,,,,,,,,,,,,,,,,,,,,,,,,,,,,,,,,,,,,,,,,,,,,,56003.000000,1663128462.284698,30.421596,0.001766,0.000000,0.000000,0.000000,0.000000,30.418726,0.000000,0.000000,0.000000,0.000000,0.000000,0.000000,-0.000000,0.000000,0.000000,0.000000,0.000000,0.000000,0.000000,0.000000,0.000000,0.000000,0.609291,0.000000,0.000000,104.923423,0.792946,0.213011,11.101692,0.000000,0.001030,0.000000,0.000000,0.000000,0.000000,0.000000,0.001030,0.000000,0.000000,0.000000,0.000000,0.000000,0.000000,-0.000000,0.000000,0.000000,0.000000,0.000000,0.000000,0.000000,0.001825,0.000000,0.000000,-0.025895,0.588520,0.006226,0.000000
1666146487.314732,,,,,,,,,,,,,,,,,,,,,,,,,,,,,,,,,,,,,,,,,,,,,,,,,,,,,,,,,,,,,,,,,,,,,,,,,,,,,,,,,,,,,,,,,,,,,,56004.000000,1663128462.296698,30.422197,0.001766,0.000000,0.000000,0.000000,0.000000,30.419326,0.000000,0.000000,0.000000,0.000000,0.000000,0.000000,-0.000000,0.000000,0.000000,0.000000,0.000000,0.000000,0.000000,0.000000,0.000000,0.000000,0.611877,0.000000,0.000000,104.549284,0.790953,0.211087,11.108509,0.000000,0.001332,0.000000,0.000000,0.000000,0.000000,0.000000,0.001332,0.000000,0.000000,0.000000,0.000000,0.000000,0.000000,-0.000000,0.000000,0.000000,0.000000,0.000000,0.000000,0.000000,0.001907,0.000000,0.000000,-0.027174,0.584092,0.008637,0.000000
1666146487.334612,,,,,,,,,,,,,,,,,,,,,,,,,,,,,,,,,,48895.000000,1663128462.311698,0.001000,0.000000,0.000000,0.000000,0.000000,0.000000,0.001000,0.000000,0.000000,0.000000,0.000000,1000000.000000,0.000000,0.000000,0.000000,1000000.000000,0.000000,0.000000,1000000.000000,0.000000,0.030000,0.000000,0.000000,0.999999,0.000000,0.000000,-0.120630,-0.001053,23.347406,5.572096,0.000000,0.001000,0.000000,0.000000,0.000000,0.000000,0.000000,0.001000,0.000000,0.000000,0.000000,0.000000,1000000.000000,0.000000,0.000000,0.000000,1000000.000000,0.000000,0.000000,1000000.000000,0.000000,0.030000,0.000000,0.000000,-0.003509,0.670000,0.000000,0.000000,,,,,,,,,,,,,,,,,,,,,,,,,,,,,,,,,,,,,,,,,,,,,,,,,,,,,,,,,,,,
1666146487.358713,,,,,,,,,,,,,,,,,,,,,,,,,,,,,,,,,,,,,,,,,,,,,,,,,,,,,,,,,,,,,,,,,,,,,,,,,,,,,,,,,,,,,,,,,,,,,,56005.000000,1663128462.306698,30.422696,0.001766,0.000000,0.000000,0.000000,0.000000,30.419826,0.000000,0.000000,0.000000,0.000000,0.000000,0.000000,-0.000000,0.000000,0.000000,0.000000,0.000000,0.000000,0.000000,0.000000,0.000000,0.000000,0.613150,0.000000,0.000000,104.364723,0.789966,0.209337,11.115785,0.000000,0.000517,0.000000,0.000000,0.000000,0.000000,0.000000,0.000517,0.000000,0.000000,0.000000,0.000000,0.000000,0.000000,-0.000000,0.000000,0.000000,0.000000,0.000000,0.000000,0.000000,0.001680,0.000000,0.000000,-0.024661,0.624846,0.003721,0.000000
1666146487.358745,,,,,,,,,,,,,,,,,,,,,,,,,,,,,,,,,,,,,,,,,,,,,,,,,,,,,,,,,,,,,,,,,,,,,,,,,,,,,,,,,,,,,,,,,,,,,,56008.000000,1663128462.339698,30.424348,0.001766,0.000000,0.000000,0.000000,0.000000,30.421477,0.000000,0.000000,0.000000,0.000000,0.000000,0.000000,-0.000000,0.000000,0.000000,0.000000,0.000000,0.000000,0.000000,0.000000,0.000000,0.000000,0.616921,0.000000,0.000000,103.816687,0.787025,0.204146,11.135472,0.000000,0.001345,0.000000,0.000000,0.000000,0.000000,0.000000,0.001345,0.000000,0.000000,0.000000,0.000000,0.000000,0.000000,-0.000000,0.000000,0.000000,0.000000,0.000000,0.000000,0.000000,0.001902,0.000000,0.000000,-0.028012,0.609854,0.009414,0.000000
1666146487.368883,,,,,,,,,,,,,,,,,,,,,,,,,,,,,,,,,,,,,,,,,,,,,,,,,,,,,,,,,,,,,,,,,,,,,,,,,,,,,,,,,,,,,,,,,,,,,,56009.000000,1663128462.350698,30.424897,0.001766,0.000000,0.000000,0.000000,-0.000000,30.422027,0.000000,0.000000,0.000000,-0.000000,0.000000,0.000000,-0.000000,0.000000,0.000000,0.000000,0.000000,0.000000,0.000000,0.000000,0.000000,0.000000,0.618188,0.000000,0.000000,103.632191,0.786031,0.202251,11.143889,0.000000,0.000432,0.000000,0.000000,0.000000,0.000000,0.000000,0.000432,0.000000,0.000000,0.000000,0.000000,0.000000,0.000000,-0.000000,0.000000,0.000000,0.000000,0.000000,0.000000,0.000000,0.001615,0.000000,0.000000,-0.024232,0.657050,0.003466,0.000000
1666146487.378703,,,,,,,,,,,,,,,,,,,,,,,,,,,,,,,,,,48899.000000,1663128462.366698,0.001000,0.000000,0.000000,0.000000,0.000000,0.000000,0.001000,0.000000,0.000000,0.000000,0.000000,1000000.000000,0.000000,0.000000,0.000000,1000000.000000,0.000000,0.000000,1000000.000000,0.000000,0.030000,0.000000,0.000000,0.999961,0.000000,0.000000,-1.015249,-0.008860,23.374554,5.571772,0.000000,0.001000,0.000000,0.000000,0.000000,0.000000,0.000000,0.001000,0.000000,0.000000,0.000000,0.000000,1000000.000000,0.000000,0.000000,0.000000,1000000.000000,0.000000,0.000000,1000000.000000,0.000000,0.030000,0.000000,0.000000,-0.003860,0.690000,0.000000,0.000000,,,,,,,,,,,,,,,,,,,,,,,,,,,,,,,,,,,,,,,,,,,,,,,,,,,,,,,,,,,,
1666146487.414630,,,,,,,,,,,,,,,,,,,,,,,,,,,,,,,,,,,,,,,,,,,,,,,,,,,,,,,,,,,,,,,,,,,,,,,,,,,,,,,,,,,,,,,,,,,,,,56013.000000,1663128462.394698,30.427098,0.001766,0.000000,0.000000,0.000000,-0.000000,30.424227,0.000000,0.000000,0.000000,-0.000000,0.000000,0.000000,-0.000000,0.000000,0.000000,0.000000,0.000000,0.000000,0.000000,0.000000,0.000000,0.000000,0.623469,0.000000,0.000000,102.860146,0.781848,0.195251,11.173055,0.000000,0.000430,0.000000,0.000000,0.000000,0.000000,0.000000,0.000430,0.000000,0.000000,0.000000,0.000000,0.000000,0.000000,-0.000000,0.000000,0.000000,0.000000,0.000000,0.000000,0.000000,0.001592,0.000000,0.000000,-0.024622,0.682017,0.004658,0.000000
1666146487.422693,,,,,,,,,,,,,,,,,,,,,,,,,,,,,,,,,,48902.000000,1663128462.399698,0.001000,0.000000,0.000000,0.000000,0.000000,0.000000,0.001000,0.000000,0.000000,0.000000,0.000000,1000000.000000,0.000000,0.000000,0.000000,1000000.000000,0.000000,0.000000,1000000.000000,0.000000,0.030000,0.000000,0.000000,0.999886,0.000000,0.000000,-1.728933,-0.015087,23.395496,5.571228,0.000000,0.001000,0.000000,0.000000,0.000000,0.000000,0.000000,0.001000,0.000000,0.000000,0.000000,0.000000,1000000.000000,0.000000,0.000000,0.000000,1000000.000000,0.000000,0.000000,1000000.000000,0.000000,0.030000,0.000000,0.000000,-0.004211,0.700000,0.000000,0.000000,,,,,,,,,,,,,,,,,,,,,,,,,,,,,,,,,,,,,,,,,,,,,,,,,,,,,,,,,,,,
1666146487.427565,,,,,,,,,,,,,,,,,,,,,,,,,,,,,,,,,,48903.000000,1663128462.410698,0.001000,0.000000,0.000000,0.000000,0.000000,0.000000,0.001000,0.000000,0.000000,0.000000,0.000000,1000000.000000,0.000000,0.000000,0.000000,1000000.000000,0.000000,0.000000,1000000.000000,0.000000,0.030000,0.000000,0.000000,0.999852,0.000000,0.000000,-1.970178,-0.017192,23.402592,5.570984,0.000000,0.001000,0.000000,0.000000,0.000000,0.000000,0.000000,0.001000,0.000000,0.000000,0.000000,0.000000,1000000.000000,0.000000,0.000000,0.000000,1000000.000000,0.000000,0.000000,1000000.000000,0.000000,0.030000,0.000000,0.000000,-0.004211,0.710000,0.000000,0.000000,,,,,,,,,,,,,,,,,,,,,,,,,,,,,,,,,,,,,,,,,,,,,,,,,,,,,,,,,,,,
1666146487.440006,,,,,,,,,,,,,,,,,,,,,,,,,,,,,,,,,,48904.000000,1663128462.432698,0.001000,0.000000,0.000000,0.000000,0.000000,0.000000,0.001000,0.000000,0.000000,0.000000,0.000000,1000000.000000,0.000000,0.000000,0.000000,1000000.000000,0.000000,0.000000,1000000.000000,0.000000,0.030000,0.000000,0.000000,0.999815,0.000000,0.000000,-2.201372,-0.019209,23.409737,5.570709,0.000000,0.001000,0.000000,0.000000,0.000000,0.000000,0.000000,0.001000,0.000000,0.000000,0.000000,0.000000,1000000.000000,0.000000,0.000000,0.000000,1000000.000000,0.000000,0.000000,1000000.000000,0.000000,0.030000,0.000000,0.000000,-0.004035,0.715000,0.000000,0.000000,,,,,,,,,,,,,,,,,,,,,,,,,,,,,,,,,,,,,,,,,,,,,,,,,,,,,,,,,,,,
1666146487.458512,,,,,,,,,,,,,,,,,,,,,,,,,,,,,,,,,,,,,,,,,,,,,,,,,,,,,,,,,,,,,,,,,,,,,,,,,,,,,,,,,,,,,,,,,,,,,,56017.000000,1663128462.438698,30.429300,0.001766,0.000000,0.000000,0.000000,0.000000,30.426429,0.000000,0.000000,0.000000,0.000000,0.000000,0.000000,-0.000000,0.000000,0.000000,0.000000,0.000000,0.000000,0.000000,0.000000,0.000000,0.000000,0.630239,0.000000,0.000000,101.864414,0.776401,0.188374,11.202044,0.000000,0.001534,0.000000,0.000000,0.000000,0.000000,0.000000,0.001534,0.000000,0.000000,0.000000,0.000000,0.000000,0.000000,-0.000000,0.000000,0.000000,0.000000,0.000000,0.000000,0.000000,0.001906,0.000000,0.000000,-0.029796,0.670228,0.017073,0.000000
1666146487.482856,,,,,,,,,,,,,,,,,,,,,,,,,,,,,,,,,,48907.000000,1663128462.465698,0.001000,0.000000,0.000000,0.000000,0.000000,0.000000,0.001000,0.000000,0.000000,0.000000,0.000000,1000000.000000,0.000000,0.000000,0.000000,1000000.000000,0.000000,0.000000,1000000.000000,0.000000,0.030000,0.000000,0.000000,0.999744,0.000000,0.000000,-2.593395,-0.022630,23.422075,5.570176,0.000000,0.001000,0.000000,0.000000,0.000000,0.000000,0.000000,0.001000,0.000000,0.000000,0.000000,0.000000,1000000.000000,0.000000,0.000000,0.000000,1000000.000000,0.000000,0.000000,1000000.000000,0.000000,0.030000,0.000000,0.000000,-0.001404,0.270000,0.000000,0.000000,,,,,,,,,,,,,,,,,,,,,,,,,,,,,,,,,,,,,,,,,,,,,,,,,,,,,,,,,,,,
1666146487.493940,202.000000,1663128462.411362,0.301484,-0.188955,0.000000,0.000000,0.000000,0.000000,0.179975,0.000000,0.000000,0.000000,0.000000,0.000000,0.000000,0.000000,0.000000,0.000000,0.000000,0.000000,0.000000,0.000000,0.012339,0.000000,0.000000,0.474338,0.000000,0.000000,123.367427,0.880343,-2.964602,8.708817,0.000000,,,,,,,,,,,,,,,,,,,,,,,,,,,,,,,,,,,,,,,,,,,,,,,,,,,,,,,,,,,,,,,,,,,,,,,,,,,,,,,,,,,,,,,,,,,,,,,,,,,,,,,,,,,,,,,,,,,,,,,,
1666146487.502809,,,,,,,,,,,,,,,,,,,,,,,,,,,,,,,,,,,,,,,,,,,,,,,,,,,,,,,,,,,,,,,,,,,,,,,,,,,,,,,,,,,,,,,,,,,,,,56022.000000,1663128462.482698,30.431500,0.001766,0.000000,0.000000,0.000000,0.000000,30.428629,0.000000,0.000000,0.000000,0.000000,0.000000,0.000000,-0.000000,0.000000,0.000000,0.000000,0.000000,0.000000,0.000000,0.000000,0.000000,0.000000,0.635455,0.000000,0.000000,101.092512,0.772138,0.183287,11.226528,0.000000,0.001061,0.000000,0.000000,0.000000,0.000000,0.000000,0.001061,0.000000,0.000000,0.000000,0.000000,0.000000,0.000000,-0.000000,0.000000,0.000000,0.000000,0.000000,0.000000,0.000000,0.001802,0.000000,0.000000,-0.027995,0.565440,0.021453,0.000000
1666146487.530727,,,,,,,,,,,,,,,,,,,,,,,,,,,,,,,,,,48911.000000,1663128462.509698,0.001000,0.000000,0.000000,0.000000,0.000000,0.000000,0.001000,0.000000,0.000000,0.000000,0.000000,1000000.000000,0.000000,0.000000,0.000000,1000000.000000,0.000000,0.000000,1000000.000000,0.000000,0.030000,0.000000,0.000000,0.999709,0.000000,0.000000,-2.764278,-0.024121,23.431115,5.569750,0.000000,0.001000,0.000000,0.000000,0.000000,0.000000,0.000000,0.001000,0.000000,0.000000,0.000000,0.000000,1000000.000000,0.000000,0.000000,0.000000,1000000.000000,0.000000,0.000000,1000000.000000,0.000000,0.030000,0.000000,0.000000,-0.000351,0.200000,0.000000,0.000000,,,,,,,,,,,,,,,,,,,,,,,,,,,,,,,,,,,,,,,,,,,,,,,,,,,,,,,,,,,,
1666146487.546636,,,,,,,,,,,,,,,,,,,,,,,,,,,,,,,,,,,,,,,,,,,,,,,,,,,,,,,,,,,,,,,,,,,,,,,,,,,,,,,,,,,,,,,,,,,,,,56026.000000,1663128462.526698,30.433701,0.001766,0.000000,0.000000,0.000000,0.000000,30.430830,0.000000,0.000000,0.000000,0.000000,0.000000,0.000000,-0.000000,0.000000,0.000000,0.000000,0.000000,0.000000,0.000000,0.000000,0.000000,0.000000,0.641878,0.000000,0.000000,100.135942,0.766806,0.181261,11.235644,0.000000,0.001296,0.000000,0.000000,0.000000,0.000000,0.000000,0.001296,0.000000,0.000000,0.000000,0.000000,0.000000,0.000000,-0.000000,0.000000,0.000000,0.000000,0.000000,0.000000,0.000000,0.001863,0.000000,0.000000,-0.028723,0.332072,0.028744,0.000000
1666146487.548579,,,,,,,,,,,,,,,,,,,,,,,,,,,,,,,,,,,,,,,,,,,,,,,,,,,,,,,,,,,,,,,,,,,,,,,,,,,,,,,,,,,,,,,,,,,,,,56027.000000,1663128462.537698,30.434251,0.001766,0.000000,0.000000,0.000000,0.000000,30.431381,0.000000,0.000000,0.000000,0.000000,0.000000,0.000000,-0.000000,0.000000,0.000000,0.000000,0.000000,0.000000,0.000000,0.000000,0.000000,0.000000,0.643179,0.000000,0.000000,99.941378,0.765716,0.180399,11.239279,0.000000,0.001572,0.000000,0.000000,0.000000,0.000000,0.000000,0.001572,0.000000,0.000000,0.000000,0.000000,0.000000,0.000000,-0.000000,0.000000,0.000000,0.000000,0.000000,0.000000,0.000000,0.001922,0.000000,0.000000,-0.029932,0.336910,0.030846,0.000000
1666146487.558779,,,,,,,,,,,,,,,,,,,,,,,,,,,,,,,,,,,,,,,,,,,,,,,,,,,,,,,,,,,,,,,,,,,,,,,,,,,,,,,,,,,,,,,,,,,,,,56028.000000,1663128462.548698,30.434800,0.001766,0.000000,0.000000,0.000000,-0.000000,30.431930,0.000000,0.000000,0.000000,-0.000000,0.000000,0.000000,-0.000000,0.000000,0.000000,0.000000,0.000000,0.000000,0.000000,0.000000,0.000000,0.000000,0.644537,0.000000,0.000000,99.738032,0.764573,0.181378,11.238450,0.000000,0.000436,0.000000,0.000000,0.000000,0.000000,0.000000,0.000436,0.000000,0.000000,0.000000,0.000000,0.000000,0.000000,-0.000000,0.000000,0.000000,0.000000,0.000000,0.000000,0.000000,0.001626,0.000000,0.000000,-0.025308,0.224026,0.007218,0.000000
1666146487.578602,,,,,,,,,,,,,,,,,,,,,,,,,,,,,,,,,,48915.000000,1663128462.564698,0.001000,0.000000,0.000000,0.000000,0.000000,0.000000,0.001000,0.000000,0.000000,0.000000,0.000000,1000000.000000,0.000000,0.000000,0.000000,1000000.000000,0.000000,0.000000,1000000.000000,0.000000,0.030000,0.000000,0.000000,0.999679,0.000000,0.000000,-2.905004,-0.025348,23.442301,5.569193,0.000000,0.001000,0.000000,0.000000,0.000000,0.000000,0.000000,0.001000,0.000000,0.000000,0.000000,0.000000,1000000.000000,0.000000,0.000000,0.000000,1000000.000000,0.000000,0.000000,1000000.000000,0.000000,0.030000,0.000000,0.000000,-0.001053,0.410000,0.000000,0.000000,,,,,,,,,,,,,,,,,,,,,,,,,,,,,,,,,,,,,,,,,,,,,,,,,,,,,,,,,,,,
1666146487.602473,,,,,,,,,,,,,,,,,,,,,,,,,,,,,,,,,,,,,,,,,,,,,,,,,,,,,,,,,,,,,,,,,,,,,,,,,,,,,,,,,,,,,,,,,,,,,,56031.000000,1663128462.581698,30.436452,0.001766,0.000000,0.000000,0.000000,0.000000,30.433581,0.000000,0.000000,0.000000,0.000000,0.000000,0.000000,-0.000000,0.000000,0.000000,0.000000,0.000000,0.000000,0.000000,0.000000,0.000000,0.000000,0.648645,0.000000,0.000000,99.120928,0.761091,0.179898,11.246186,0.000000,0.001264,0.000000,0.000000,0.000000,0.000000,0.000000,0.001264,0.000000,0.000000,0.000000,0.000000,0.000000,0.000000,-0.000000,0.000000,0.000000,0.000000,0.000000,0.000000,0.000000,0.001868,0.000000,0.000000,-0.029332,0.243864,0.011419,0.000000
1666146487.622705,,,,,,,,,,,,,,,,,,,,,,,,,,,,,,,,,,48917.000000,1663128462.586698,0.001000,0.000000,0.000000,0.000000,0.000000,0.000000,0.001000,0.000000,0.000000,0.000000,0.000000,1000000.000000,0.000000,0.000000,0.000000,1000000.000000,0.000000,0.000000,1000000.000000,0.000000,0.030000,0.000000,0.000000,0.999630,0.000000,0.000000,-3.116094,-0.027190,23.452637,5.568640,0.000000,0.001000,0.000000,0.000000,0.000000,0.000000,0.000000,0.001000,0.000000,0.000000,0.000000,0.000000,1000000.000000,0.000000,0.000000,0.000000,1000000.000000,0.000000,0.000000,1000000.000000,0.000000,0.030000,0.000000,0.000000,-0.002105,0.560000,0.000000,0.000000,,,,,,,,,,,,,,,,,,,,,,,,,,,,,,,,,,,,,,,,,,,,,,,,,,,,,,,,,,,,
1666146487.622740,,,,,,,,,,,,,,,,,,,,,,,,,,,,,,,,,,48918.000000,1663128462.597698,0.001000,0.000000,0.000000,0.000000,0.000000,0.000000,0.001000,0.000000,0.000000,0.000000,0.000000,1000000.000000,0.000000,0.000000,0.000000,1000000.000000,0.000000,0.000000,1000000.000000,0.000000,0.030000,0.000000,0.000000,0.999596,0.000000,0.000000,-3.256820,-0.028417,23.458727,5.568294,0.000000,0.001000,0.000000,0.000000,0.000000,0.000000,0.000000,0.001000,0.000000,0.000000,0.000000,0.000000,1000000.000000,0.000000,0.000000,0.000000,1000000.000000,0.000000,0.000000,1000000.000000,0.000000,0.030000,0.000000,0.000000,-0.002456,0.610000,0.000000,0.000000,,,,,,,,,,,,,,,,,,,,,,,,,,,,,,,,,,,,,,,,,,,,,,,,,,,,,,,,,,,,
1666146487.627944,,,,,,,,,,,,,,,,,,,,,,,,,,,,,,,,,,48919.000000,1663128462.619698,0.001000,0.000000,0.000000,0.000000,0.000000,0.000000,0.001000,0.000000,0.000000,0.000000,0.000000,1000000.000000,0.000000,0.000000,0.000000,1000000.000000,0.000000,0.000000,1000000.000000,0.000000,0.030000,0.000000,0.000000,0.999560,0.000000,0.000000,-3.397547,-0.029645,23.465415,5.567897,0.000000,0.001000,0.000000,0.000000,0.000000,0.000000,0.000000,0.001000,0.000000,0.000000,0.000000,0.000000,1000000.000000,0.000000,0.000000,0.000000,1000000.000000,0.000000,0.000000,1000000.000000,0.000000,0.030000,0.000000,0.000000,-0.002456,0.670000,0.000000,0.000000,,,,,,,,,,,,,,,,,,,,,,,,,,,,,,,,,,,,,,,,,,,,,,,,,,,,,,,,,,,,
1666146487.639953,,,,,,,,,,,,,,,,,,,,,,,,,,,,,,,,,,48920.000000,1663128462.630698,0.001000,0.000000,0.000000,0.000000,0.000000,0.000000,0.001000,0.000000,0.000000,0.000000,0.000000,1000000.000000,0.000000,0.000000,0.000000,1000000.000000,0.000000,0.000000,1000000.000000,0.000000,0.030000,0.000000,0.000000,0.999518,0.000000,0.000000,-3.558377,-0.031048,23.472402,5.567462,0.000000,0.001000,0.000000,0.000000,0.000000,0.000000,0.000000,0.001000,0.000000,0.000000,0.000000,0.000000,1000000.000000,0.000000,0.000000,0.000000,1000000.000000,0.000000,0.000000,1000000.000000,0.000000,0.030000,0.000000,0.000000,-0.002807,0.700000,0.000000,0.000000,,,,,,,,,,,,,,,,,,,,,,,,,,,,,,,,,,,,,,,,,,,,,,,,,,,,,,,,,,,,
1666146487.646529,,,,,,,,,,,,,,,,,,,,,,,,,,,,,,,,,,,,,,,,,,,,,,,,,,,,,,,,,,,,,,,,,,,,,,,,,,,,,,,,,,,,,,,,,,,,,,56035.000000,1663128462.626698,30.438702,0.001766,0.000000,0.000000,0.000000,0.000000,30.435832,0.000000,0.000000,0.000000,0.000000,0.000000,0.000000,-0.000000,0.000000,0.000000,0.000000,0.000000,0.000000,0.000000,0.000000,0.000000,0.000000,0.654007,0.000000,0.000000,98.311177,0.756488,0.176559,11.269435,0.000000,0.001283,0.000000,0.000000,0.000000,0.000000,0.000000,0.001283,0.000000,0.000000,0.000000,0.000000,0.000000,0.000000,-0.000000,0.000000,0.000000,0.000000,0.000000,0.000000,0.000000,0.001865,0.000000,0.000000,-0.026794,0.445911,-0.001007,0.000000
1666146487.686712,,,,,,,,,,,,,,,,,,,,,,,,,,,,,,,,,,48923.000000,1663128462.663698,0.001000,0.000000,0.000000,0.000000,0.000000,0.000000,0.001000,0.000000,0.000000,0.000000,0.000000,1000000.000000,0.000000,0.000000,0.000000,1000000.000000,0.000000,0.000000,1000000.000000,0.000000,0.030000,0.000000,0.000000,0.999259,0.000000,0.000000,-4.412788,-0.038499,23.490506,5.566179,0.000000,0.001000,0.000000,0.000000,0.000000,0.000000,0.000000,0.001000,0.000000,0.000000,0.000000,0.000000,1000000.000000,0.000000,0.000000,0.000000,1000000.000000,0.000000,0.000000,1000000.000000,0.000000,0.030000,0.000000,0.000000,-0.006316,0.560000,0.000000,0.000000,,,,,,,,,,,,,,,,,,,,,,,,,,,,,,,,,,,,,,,,,,,,,,,,,,,,,,,,,,,,
1666146487.690785,,,,,,,,,,,,,,,,,,,,,,,,,,,,,,,,,,,,,,,,,,,,,,,,,,,,,,,,,,,,,,,,,,,,,,,,,,,,,,,,,,,,,,,,,,,,,,56039.000000,1663128462.669698,30.440852,0.001766,0.000000,0.000000,0.000000,0.000000,30.437982,0.000000,0.000000,0.000000,0.000000,0.000000,-0.000000,-0.000000,0.000000,0.000000,-0.000000,0.000000,0.000000,0.000000,0.000000,0.000000,0.000000,0.657181,0.000000,0.000000,97.829573,0.753733,0.172281,11.300139,0.000000,0.000819,0.000000,0.000000,0.000000,0.000000,0.000000,0.000819,0.000000,0.000000,0.000000,0.000000,0.000000,-0.000000,-0.000000,0.000000,0.000000,-0.000000,0.000000,0.000000,0.000000,0.001747,0.000000,0.000000,-0.021975,0.631322,-0.006656,0.000000
1666146487.730623,,,,,,,,,,,,,,,,,,,,,,,,,,,,,,,,,,48927.000000,1663128462.718698,0.001000,0.000000,0.000000,0.000000,0.000000,0.000000,0.001000,0.000000,0.000000,0.000000,0.000000,1000000.000000,0.000000,0.000000,0.000000,1000000.000000,0.000000,0.000000,1000000.000000,0.000000,0.030000,0.000000,0.000000,0.998841,0.000000,0.000000,-5.518496,-0.048139,23.509728,5.564447,0.000000,0.001000,0.000000,0.000000,0.000000,0.000000,0.000000,0.001000,0.000000,0.000000,0.000000,0.000000,1000000.000000,0.000000,0.000000,0.000000,1000000.000000,0.000000,0.000000,1000000.000000,0.000000,0.030000,0.000000,0.000000,-0.003684,0.435000,0.000000,0.000000,,,,,,,,,,,,,,,,,,,,,,,,,,,,,,,,,,,,,,,,,,,,,,,,,,,,,,,,,,,,
1666146487.734612,,,,,,,,,,,,,,,,,,,,,,,,,,,,,,,,,,,,,,,,,,,,,,,,,,,,,,,,,,,,,,,,,,,,,,,,,,,,,,,,,,,,,,,,,,,,,,56043.000000,1663128462.713698,30.443053,0.001766,0.000000,0.000000,0.000000,0.000000,30.440182,0.000000,0.000000,0.000000,0.000000,0.000000,0.000000,-0.000000,0.000000,0.000000,0.000000,0.000000,0.000000,0.000000,0.000000,0.000000,0.000000,0.660306,0.000000,0.000000,97.353601,0.750997,0.168907,11.323845,0.000000,0.000819,0.000000,0.000000,0.000000,0.000000,0.000000,0.000819,0.000000,0.000000,0.000000,0.000000,0.000000,0.000000,-0.000000,0.000000,0.000000,0.000000,0.000000,0.000000,0.000000,0.001770,0.000000,0.000000,-0.021217,0.559780,0.001184,0.000000
1666146487.774828,,,,,,,,,,,,,,,,,,,,,,,,,,,,,,,,,,48930.000000,1663128462.751698,0.001000,0.000000,0.000000,0.000000,0.000000,0.000000,0.001000,0.000000,0.000000,0.000000,0.000000,1000000.000000,0.000000,0.000000,0.000000,1000000.000000,0.000000,0.000000,1000000.000000,0.000000,0.030000,0.000000,0.000000,0.998597,0.000000,0.000000,-6.071350,-0.052958,23.524200,5.562948,0.000000,0.001000,0.000000,0.000000,0.000000,0.000000,0.000000,0.001000,0.000000,0.000000,0.000000,0.000000,1000000.000000,0.000000,0.000000,0.000000,1000000.000000,0.000000,0.000000,1000000.000000,0.000000,0.030000,0.000000,0.000000,-0.002632,0.525000,0.000000,0.000000,,,,,,,,,,,,,,,,,,,,,,,,,,,,,,,,,,,,,,,,,,,,,,,,,,,,,,,,,,,,
1666146487.777498,,,,,,,,,,,,,,,,,,,,,,,,,,,,,,,,,,48931.000000,1663128462.762698,0.001000,0.000000,0.000000,0.000000,0.000000,0.000000,0.001000,0.000000,0.000000,0.000000,0.000000,1000000.000000,0.000000,0.000000,0.000000,1000000.000000,0.000000,0.000000,1000000.000000,0.000000,0.030000,0.000000,0.000000,0.998517,0.000000,0.000000,-6.242232,-0.054447,23.529916,5.562323,0.000000,0.001000,0.000000,0.000000,0.000000,0.000000,0.000000,0.001000,0.000000,0.000000,0.000000,0.000000,1000000.000000,0.000000,0.000000,0.000000,1000000.000000,0.000000,0.000000,1000000.000000,0.000000,0.030000,0.000000,0.000000,-0.002982,0.575000,0.000000,0.000000,,,,,,,,,,,,,,,,,,,,,,,,,,,,,,,,,,,,,,,,,,,,,,,,,,,,,,,,,,,,
1666146487.778344,,,,,,,,,,,,,,,,,,,,,,,,,,,,,,,,,,,,,,,,,,,,,,,,,,,,,,,,,,,,,,,,,,,,,,,,,,,,,,,,,,,,,,,,,,,,,,56045.000000,1663128462.736698,30.444204,0.001766,0.000000,0.000000,0.000000,0.000000,30.441334,0.000000,0.000000,0.000000,0.000000,0.000000,0.000000,-0.000000,0.000000,0.000000,0.000000,0.000000,0.000000,0.000000,0.000000,0.000000,0.000000,0.663224,0.000000,0.000000,96.907540,0.748421,0.167176,11.336648,0.000000,0.001397,0.000000,0.000000,0.000000,0.000000,0.000000,0.001397,0.000000,0.000000,0.000000,0.000000,0.000000,0.000000,-0.000000,0.000000,0.000000,0.000000,0.000000,0.000000,0.000000,0.001922,0.000000,0.000000,-0.023005,0.564023,0.004068,0.000000
1666146487.778364,,,,,,,,,,,,,,,,,,,,,,,,,,,,,,,,,,,,,,,,,,,,,,,,,,,,,,,,,,,,,,,,,,,,,,,,,,,,,,,,,,,,,,,,,,,,,,56047.000000,1663128462.757698,30.445254,0.001766,0.000000,0.000000,0.000000,0.000000,30.442383,0.000000,0.000000,0.000000,0.000000,0.000000,0.000000,-0.000000,0.000000,0.000000,0.000000,0.000000,0.000000,0.000000,0.000000,0.000000,0.000000,0.665292,0.000000,0.000000,96.590549,0.746583,0.166340,11.343952,0.000000,0.000696,0.000000,0.000000,0.000000,0.000000,0.000000,0.000696,0.000000,0.000000,0.000000,0.000000,0.000000,0.000000,-0.000000,0.000000,0.000000,0.000000,0.000000,0.000000,0.000000,0.001705,0.000000,0.000000,-0.021193,0.475641,0.004446,0.000000
1666146487.789904,,,,,,,,,,,,,,,,,,,,,,,,,,,,,,,,,,48932.000000,1663128462.773698,0.001000,0.000000,0.000000,0.000000,0.000000,0.000000,0.001000,0.000000,0.000000,0.000000,0.000000,1000000.000000,0.000000,0.000000,0.000000,1000000.000000,0.000000,0.000000,1000000.000000,0.000000,0.030000,0.000000,0.000000,0.998449,0.000000,0.000000,-6.382958,-0.055673,23.535879,5.561656,0.000000,0.001000,0.000000,0.000000,0.000000,0.000000,0.000000,0.001000,0.000000,0.000000,0.000000,0.000000,1000000.000000,0.000000,0.000000,0.000000,1000000.000000,0.000000,0.000000,1000000.000000,0.000000,0.030000,0.000000,0.000000,-0.002456,0.600000,0.000000,0.000000,,,,,,,,,,,,,,,,,,,,,,,,,,,,,,,,,,,,,,,,,,,,,,,,,,,,,,,,,,,,
1666146487.822627,,,,,,,,,,,,,,,,,,,,,,,,,,,,,,,,,,,,,,,,,,,,,,,,,,,,,,,,,,,,,,,,,,,,,,,,,,,,,,,,,,,,,,,,,,,,,,56051.000000,1663128462.806698,30.447704,0.001766,0.000000,0.000000,0.000000,0.000000,30.444834,0.000000,0.000000,0.000000,0.000000,0.000001,0.000000,-0.000000,0.000000,0.000001,0.000000,0.000000,0.000001,0.000000,0.000300,0.000000,0.000000,0.669324,0.000000,0.000000,95.970192,0.742971,0.163296,11.371530,0.000000,0.000403,0.000000,0.000000,0.000000,0.000000,0.000000,0.000403,0.000000,0.000000,0.000000,0.000000,0.000001,0.000000,-0.000000,0.000000,0.000001,0.000000,0.000000,0.000001,0.000000,0.001670,0.000000,0.000000,-0.019607,0.580135,0.002448,0.000000
1666146487.830613,,,,,,,,,,,,,,,,,,,,,,,,,,,,,,,,,,48935.000000,1663128462.817698,0.001000,0.000000,0.000000,0.000000,0.000000,0.000000,0.001000,0.000000,0.000000,0.000000,0.000000,1000000.000000,0.000000,0.000000,0.000000,1000000.000000,0.000000,0.000000,1000000.000000,0.000000,0.030000,0.000000,0.000000,0.998355,0.000000,0.000000,-6.573944,-0.057337,23.553415,5.559652,0.000000,0.001000,0.000000,0.000000,0.000000,0.000000,0.000000,0.001000,0.000000,0.000000,0.000000,0.000000,1000000.000000,0.000000,0.000000,0.000000,1000000.000000,0.000000,0.000000,1000000.000000,0.000000,0.030000,0.000000,0.000000,-0.000877,0.575000,0.000000,0.000000,,,,,,,,,,,,,,,,,,,,,,,,,,,,,,,,,,,,,,,,,,,,,,,,,,,,,,,,,,,,
1666146487.866646,,,,,,,,,,,,,,,,,,,,,,,,,,,,,,,,,,,,,,,,,,,,,,,,,,,,,,,,,,,,,,,,,,,,,,,,,,,,,,,,,,,,,,,,,,,,,,56055.000000,1663128462.846698,30.449706,0.001766,0.000000,0.000000,0.000000,0.000000,30.446835,0.000000,0.000000,0.000000,0.000000,0.000000,0.000000,-0.000000,0.000000,0.000000,0.000000,0.000000,0.000000,0.000000,0.000000,0.000000,0.000000,0.674317,0.000000,0.000000,95.197684,0.738442,0.161000,11.394562,0.000000,0.001406,0.000000,0.000000,0.000000,0.000000,0.000000,0.001406,0.000000,0.000000,0.000000,0.000000,0.000000,0.000000,-0.000000,0.000000,0.000000,0.000000,0.000000,0.000000,0.000000,0.001912,0.000000,0.000000,-0.023461,0.581725,0.001953,0.000000
1666146487.874540,,,,,,,,,,,,,,,,,,,,,,,,,,,,,,,,,,48938.000000,1663128462.850698,0.001000,0.000000,0.000000,0.000000,0.000000,0.000000,0.001000,0.000000,0.000000,0.000000,0.000000,1000000.000000,0.000000,0.000000,0.000000,1000000.000000,0.000000,0.000000,1000000.000000,0.000000,0.030000,0.000000,0.000000,0.998088,0.000000,0.000000,-7.086591,-0.061803,23.569449,5.557717,0.000000,0.001000,0.000000,0.000000,0.000000,0.000000,0.000000,0.001000,0.000000,0.000000,0.000000,0.000000,1000000.000000,0.000000,0.000000,0.000000,1000000.000000,0.000000,0.000000,1000000.000000,0.000000,0.030000,0.000000,0.000000,-0.003860,0.540000,0.000000,0.000000,,,,,,,,,,,,,,,,,,,,,,,,,,,,,,,,,,,,,,,,,,,,,,,,,,,,,,,,,,,,
1666146487.910709,,,,,,,,,,,,,,,,,,,,,,,,,,,,,,,,,,,,,,,,,,,,,,,,,,,,,,,,,,,,,,,,,,,,,,,,,,,,,,,,,,,,,,,,,,,,,,56056.000000,1663128462.856698,30.450205,0.001766,0.000000,0.000000,0.000000,0.000000,30.447335,0.000000,0.000000,0.000000,0.000000,0.000000,0.000000,-0.000000,0.000000,0.000000,0.000000,0.000000,0.000000,0.000000,0.000000,0.000000,0.000000,0.675115,0.000000,0.000000,95.073788,0.737712,0.160596,11.399388,0.000000,0.000520,0.000000,0.000000,0.000000,0.000000,0.000000,0.000520,0.000000,0.000000,0.000000,0.000000,0.000000,0.000000,-0.000000,0.000000,0.000000,0.000000,0.000000,0.000000,0.000000,0.001683,0.000000,0.000000,-0.020519,0.556134,0.000838,0.000000
1666146487.910749,,,,,,,,,,,,,,,,,,,,,,,,,,,,,,,,,,,,,,,,,,,,,,,,,,,,,,,,,,,,,,,,,,,,,,,,,,,,,,,,,,,,,,,,,,,,,,56059.000000,1663128462.894698,30.452106,0.001766,0.000000,0.000000,0.000000,0.000000,30.449235,0.000000,0.000000,0.000000,0.000000,0.000001,0.000000,-0.000000,0.000000,0.000001,0.000000,0.000000,0.000001,0.000000,0.000300,0.000000,0.000000,0.677759,0.000000,0.000000,94.662407,0.735284,0.158801,11.419701,0.000000,0.000396,0.000000,0.000000,0.000000,0.000000,0.000000,0.000396,0.000000,0.000000,0.000000,0.000000,0.000001,0.000000,-0.000000,0.000000,0.000001,0.000000,0.000000,0.000001,0.000000,0.001660,0.000000,0.000000,-0.019050,0.536733,0.001855,0.000000
1666146487.918672,,,,,,,,,,,,,,,,,,,,,,,,,,,,,,,,,,48942.000000,1663128462.905698,0.001000,0.000000,0.000000,0.000000,0.000000,0.000000,0.001000,0.000000,0.000000,0.000000,0.000000,1000000.000000,0.000000,0.000000,0.000000,1000000.000000,0.000000,0.000000,1000000.000000,0.000000,0.030000,0.000000,0.000000,0.997630,0.000000,0.000000,-7.890742,-0.068805,23.590660,5.554886,0.000000,0.001000,0.000000,0.000000,0.000000,0.000000,0.000000,0.001000,0.000000,0.000000,0.000000,0.000000,1000000.000000,0.000000,0.000000,0.000000,1000000.000000,0.000000,0.000000,1000000.000000,0.000000,0.030000,0.000000,0.000000,-0.003333,0.545000,0.000000,0.000000,,,,,,,,,,,,,,,,,,,,,,,,,,,,,,,,,,,,,,,,,,,,,,,,,,,,,,,,,,,,
1666146487.958791,,,,,,,,,,,,,,,,,,,,,,,,,,,,,,,,,,,,,,,,,,,,,,,,,,,,,,,,,,,,,,,,,,,,,,,,,,,,,,,,,,,,,,,,,,,,,,56063.000000,1663128462.933698,30.454057,0.001766,0.000000,0.000000,0.000000,0.000000,30.451187,0.000000,0.000000,0.000000,0.000000,0.000000,0.000000,-0.000000,0.000000,0.000000,0.000000,0.000000,0.000000,0.000000,0.000000,0.000000,0.000000,0.681779,0.000000,0.000000,94.034410,0.731558,0.156960,11.440553,0.000000,0.001374,0.000000,0.000000,0.000000,0.000000,0.000000,0.001374,0.000000,0.000000,0.000000,0.000000,0.000000,0.000000,-0.000000,0.000000,0.000000,0.000000,0.000000,0.000000,0.000000,0.001890,0.000000,0.000000,-0.023258,0.536205,0.008921,0.000000
1666146487.962759,,,,,,,,,,,,,,,,,,,,,,,,,,,,,,,,,,48945.000000,1663128462.938698,0.001000,0.000000,0.000000,0.000000,0.000000,0.000000,0.001000,0.000000,0.000000,0.000000,0.000000,1000000.000000,0.000000,0.000000,0.000000,1000000.000000,0.000000,0.000000,1000000.000000,0.000000,0.030000,0.000000,0.000000,0.997248,0.000000,0.000000,-8.503907,-0.074142,23.607631,5.552409,0.000000,0.001000,0.000000,0.000000,0.000000,0.000000,0.000000,0.001000,0.000000,0.000000,0.000000,0.000000,1000000.000000,0.000000,0.000000,0.000000,1000000.000000,0.000000,0.000000,1000000.000000,0.000000,0.030000,0.000000,0.000000,-0.003509,0.580000,0.000000,0.000000,,,,,,,,,,,,,,,,,,,,,,,,,,,,,,,,,,,,,,,,,,,,,,,,,,,,,,,,,,,,
1666146487.965271,,,,,,,,,,,,,,,,,,,,,,,,,,,,,,,,,,48946.000000,1663128462.949698,0.001000,0.000000,0.000000,0.000000,0.000000,0.000000,0.001000,0.000000,0.000000,0.000000,0.000000,1000000.000000,0.000000,0.000000,0.000000,1000000.000000,0.000000,0.000000,1000000.000000,0.000000,0.030000,0.000000,0.000000,0.997129,0.000000,0.000000,-8.684841,-0.075717,23.613265,5.551549,0.000000,0.001000,0.000000,0.000000,0.000000,0.000000,0.000000,0.001000,0.000000,0.000000,0.000000,0.000000,1000000.000000,0.000000,0.000000,0.000000,1000000.000000,0.000000,0.000000,1000000.000000,0.000000,0.030000,0.000000,0.000000,-0.003158,0.570000,0.000000,0.000000,,,,,,,,,,,,,,,,,,,,,,,,,,,,,,,,,,,,,,,,,,,,,,,,,,,,,,,,,,,,
1666146487.977654,,,,,,,,,,,,,,,,,,,,,,,,,,,,,,,,,,48947.000000,1663128462.960698,0.001000,0.000000,0.000000,0.000000,0.000000,0.000000,0.001000,0.000000,0.000000,0.000000,0.000000,1000000.000000,0.000000,0.000000,0.000000,1000000.000000,0.000000,0.000000,1000000.000000,0.000000,0.030000,0.000000,0.000000,0.997022,0.000000,0.000000,-8.845672,-0.077116,23.619095,5.550641,0.000000,0.001000,0.000000,0.000000,0.000000,0.000000,0.000000,0.001000,0.000000,0.000000,0.000000,0.000000,1000000.000000,0.000000,0.000000,0.000000,1000000.000000,0.000000,0.000000,1000000.000000,0.000000,0.030000,0.000000,0.000000,-0.002807,0.590000,0.000000,0.000000,,,,,,,,,,,,,,,,,,,,,,,,,,,,,,,,,,,,,,,,,,,,,,,,,,,,,,,,,,,,
1666146488.002515,,,,,,,,,,,,,,,,,,,,,,,,,,,,,,,,,,,,,,,,,,,,,,,,,,,,,,,,,,,,,,,,,,,,,,,,,,,,,,,,,,,,,,,,,,,,,,56068.000000,1663128462.988698,30.456808,0.001766,0.000000,0.000000,0.000000,0.000000,30.453937,0.000000,0.000000,0.000000,0.000000,0.000000,0.000000,-0.000000,0.000000,0.000000,0.000000,0.000000,0.000000,0.000000,0.000000,0.000000,0.000000,0.688165,0.000000,0.000000,93.029890,0.725554,0.154943,11.472102,0.000000,0.001336,0.000000,0.000000,0.000000,0.000000,0.000000,0.001336,0.000000,0.000000,0.000000,0.000000,0.000000,0.000000,-0.000000,0.000000,0.000000,0.000000,0.000000,0.000000,0.000000,0.001864,0.000000,0.000000,-0.024161,0.561903,0.008870,0.000000
1666146488.022562,,,,,,,,,,,,,,,,,,,,,,,,,,,,,,,,,,48950.000000,1663128463.004698,0.001000,0.000000,0.000000,0.000000,0.000000,0.000000,0.001000,0.000000,0.000000,0.000000,0.000000,1000000.000000,0.000000,0.000000,0.000000,1000000.000000,0.000000,0.000000,1000000.000000,0.000000,0.030000,0.000000,0.000000,0.996631,0.000000,0.000000,-9.408578,-0.082013,23.636271,5.547856,0.000000,0.001000,0.000000,0.000000,0.000000,0.000000,0.000000,0.001000,0.000000,0.000000,0.000000,0.000000,1000000.000000,0.000000,0.000000,0.000000,1000000.000000,0.000000,0.000000,1000000.000000,0.000000,0.030000,0.000000,0.000000,-0.003509,0.580000,0.000000,0.000000,,,,,,,,,,,,,,,,,,,,,,,,,,,,,,,,,,,,,,,,,,,,,,,,,,,,,,,,,,,,
1666146488.050658,,,,,,,,,,,,,,,,,,,,,,,,,,,,,,,,,,,,,,,,,,,,,,,,,,,,,,,,,,,,,,,,,,,,,,,,,,,,,,,,,,,,,,,,,,,,,,56073.000000,1663128463.032698,30.459009,0.001766,0.000000,0.000000,0.000000,0.000000,30.456138,0.000000,0.000000,0.000000,0.000000,0.000000,0.000000,-0.000000,0.000000,0.000000,0.000000,0.000000,0.000000,0.000000,0.000000,0.000000,0.000000,0.692138,0.000000,0.000000,92.400787,0.721765,0.153661,11.497935,0.000000,0.001307,0.000000,0.000000,0.000000,0.000000,0.000000,0.001307,0.000000,0.000000,0.000000,0.000000,0.000000,0.000000,-0.000000,0.000000,0.000000,0.000000,0.000000,0.000000,0.000000,0.001890,0.000000,0.000000,-0.024488,0.576256,0.008226,0.000000
1666146488.070774,,,,,,,,,,,,,,,,,,,,,,,,,,,,,,,,,,48954.000000,1663128463.048698,0.001000,0.000000,0.000000,0.000000,0.000000,0.000000,0.001000,0.000000,0.000000,0.000000,0.000000,1000000.000000,0.000000,0.000000,0.000000,1000000.000000,0.000000,0.000000,1000000.000000,0.000000,0.030000,0.000000,0.000000,0.996055,0.000000,0.000000,-10.182573,-0.088743,23.659372,5.543826,0.000000,0.001000,0.000000,0.000000,0.000000,0.000000,0.000000,0.001000,0.000000,0.000000,0.000000,0.000000,1000000.000000,0.000000,0.000000,0.000000,1000000.000000,0.000000,0.000000,1000000.000000,0.000000,0.030000,0.000000,0.000000,-0.003509,0.590000,0.000000,0.000000,,,,,,,,,,,,,,,,,,,,,,,,,,,,,,,,,,,,,,,,,,,,,,,,,,,,,,,,,,,,
1666146488.098510,,,,,,,,,,,,,,,,,,,,,,,,,,,,,,,,,,,,,,,,,,,,,,,,,,,,,,,,,,,,,,,,,,,,,,,,,,,,,,,,,,,,,,,,,,,,,,56076.000000,1663128463.066698,30.460709,0.001766,0.000000,0.000000,0.000000,0.000000,30.457838,0.000000,0.000000,0.000000,0.000000,0.000000,0.000000,-0.000000,0.000000,0.000000,0.000000,0.000000,0.000000,0.000000,0.000000,0.000000,0.000000,0.696148,0.000000,0.000000,91.762508,0.717899,0.152896,11.517726,0.000000,0.001118,0.000000,0.000000,0.000000,0.000000,0.000000,0.001118,0.000000,0.000000,0.000000,0.000000,0.000000,0.000000,-0.000000,0.000000,0.000000,0.000000,0.000000,0.000000,0.000000,0.001861,0.000000,0.000000,-0.024131,0.577799,0.007504,0.000000
1666146488.098550,,,,,,,,,,,,,,,,,,,,,,,,,,,,,,,,,,,,,,,,,,,,,,,,,,,,,,,,,,,,,,,,,,,,,,,,,,,,,,,,,,,,,,,,,,,,,,56078.000000,1663128463.087698,30.461759,0.001766,0.000000,0.000000,0.000000,-0.000000,30.458888,0.000000,0.000000,0.000000,-0.000000,0.000000,0.000000,-0.000000,0.000000,0.000000,0.000000,0.000000,0.000000,0.000000,0.000000,0.000000,0.000000,0.698221,0.000000,0.000000,91.431034,0.715882,0.152631,11.530449,0.000000,0.000432,0.000000,0.000000,0.000000,0.000000,0.000000,0.000432,0.000000,0.000000,0.000000,0.000000,0.000000,0.000000,-0.000000,0.000000,0.000000,0.000000,0.000000,0.000000,0.000000,0.001616,0.000000,0.000000,-0.021744,0.593186,0.002943,0.000000
1666146488.108995,,,,,,,,,,,,,,,,,,,,,,,,,,,,,,,,,,,,,,,,,,,,,,,,,,,,,,,,,,,,,,,,,,,,,,,,,,,,,,,,,,,,,,,,,,,,,,56079.000000,1663128463.098698,30.462309,0.001766,0.000000,0.000000,0.000000,0.000000,30.459439,0.000000,0.000000,0.000000,0.000000,0.000000,0.000000,-0.000000,0.000000,0.000000,0.000000,0.000000,0.000000,0.000000,0.000000,0.000000,0.000000,0.699271,0.000000,0.000000,91.262852,0.714856,0.152413,11.536963,0.000000,0.000708,0.000000,0.000000,0.000000,0.000000,0.000000,0.000708,0.000000,0.000000,0.000000,0.000000,0.000000,0.000000,-0.000000,0.000000,0.000000,0.000000,0.000000,0.000000,0.000000,0.001710,0.000000,0.000000,-0.022821,0.591994,0.005278,0.000000
1666146488.114673,,,,,,,,,,,,,,,,,,,,,,,,,,,,,,,,,,48957.000000,1663128463.092698,0.001000,0.000000,0.000000,0.000000,0.000000,0.000000,0.001000,0.000000,0.000000,0.000000,0.000000,1000000.000000,0.000000,0.000000,0.000000,1000000.000000,0.000000,0.000000,1000000.000000,0.000000,0.030000,0.000000,0.000000,0.995607,0.000000,0.000000,-10.745479,-0.093635,23.677164,5.540507,0.000000,0.001000,0.000000,0.000000,0.000000,0.000000,0.000000,0.001000,0.000000,0.000000,0.000000,0.000000,1000000.000000,0.000000,0.000000,0.000000,1000000.000000,0.000000,0.000000,1000000.000000,0.000000,0.030000,0.000000,0.000000,-0.002982,0.605000,0.000000,0.000000,,,,,,,,,,,,,,,,,,,,,,,,,,,,,,,,,,,,,,,,,,,,,,,,,,,,,,,,,,,,
1666146488.114896,,,,,,,,,,,,,,,,,,,,,,,,,,,,,,,,,,48958.000000,1663128463.103698,0.001000,0.000000,0.000000,0.000000,0.000000,0.000000,0.001000,0.000000,0.000000,0.000000,0.000000,1000000.000000,0.000000,0.000000,0.000000,1000000.000000,0.000000,0.000000,1000000.000000,0.000000,0.030000,0.000000,0.000000,0.995466,0.000000,0.000000,-10.916361,-0.095119,23.683105,5.539361,0.000000,0.001000,0.000000,0.000000,0.000000,0.000000,0.000000,0.001000,0.000000,0.000000,0.000000,0.000000,1000000.000000,0.000000,0.000000,0.000000,1000000.000000,0.000000,0.000000,1000000.000000,0.000000,0.030000,0.000000,0.000000,-0.002982,0.605000,0.000000,0.000000,,,,,,,,,,,,,,,,,,,,,,,,,,,,,,,,,,,,,,,,,,,,,,,,,,,,,,,,,,,,
1666146488.120647,203.000000,1663128463.025561,0.287539,-0.178900,0.000000,0.000000,0.000000,0.000000,0.174789,0.000000,0.000000,0.000000,0.000000,0.000000,0.000000,0.000000,0.000000,0.000000,0.000000,0.000000,0.000000,0.000000,0.010620,0.000000,0.000000,0.549089,0.000000,0.000000,113.390934,0.835764,-3.016851,8.910057,0.000000,,,,,,,,,,,,,,,,,,,,,,,,,,,,,,,,,,,,,,,,,,,,,,,,,,,,,,,,,,,,,,,,,,,,,,,,,,,,,,,,,,,,,,,,,,,,,,,,,,,,,,,,,,,,,,,,,,,,,,,,
1666146488.127558,,,,,,,,,,,,,,,,,,,,,,,,,,,,,,,,,,48959.000000,1663128463.114698,0.001000,0.000000,0.000000,0.000000,0.000000,0.000000,0.001000,0.000000,0.000000,0.000000,0.000000,1000000.000000,0.000000,0.000000,0.000000,1000000.000000,0.000000,0.000000,1000000.000000,0.000000,0.030000,0.000000,0.000000,0.995314,0.000000,0.000000,-11.097295,-0.096691,23.688993,5.538206,0.000000,0.001000,0.000000,0.000000,0.000000,0.000000,0.000000,0.001000,0.000000,0.000000,0.000000,0.000000,1000000.000000,0.000000,0.000000,0.000000,1000000.000000,0.000000,0.000000,1000000.000000,0.000000,0.030000,0.000000,0.000000,-0.003158,0.600000,0.000000,0.000000,,,,,,,,,,,,,,,,,,,,,,,,,,,,,,,,,,,,,,,,,,,,,,,,,,,,,,,,,,,,
1666146488.150542,,,,,,,,,,,,,,,,,,,,,,,,,,,,,,,,,,,,,,,,,,,,,,,,,,,,,,,,,,,,,,,,,,,,,,,,,,,,,,,,,,,,,,,,,,,,,,56082.000000,1663128463.131698,30.463960,0.001766,0.000000,0.000000,0.000000,-0.000000,30.461089,0.000000,0.000000,0.000000,-0.000000,0.000000,0.000000,-0.000000,0.000000,0.000000,0.000000,0.000000,0.000000,0.000000,0.000000,0.000000,0.000000,0.702413,0.000000,0.000000,90.758159,0.711770,0.152044,11.556860,0.000000,0.000430,0.000000,0.000000,0.000000,0.000000,0.000000,0.000430,0.000000,0.000000,0.000000,0.000000,0.000000,0.000000,-0.000000,0.000000,0.000000,0.000000,0.000000,0.000000,0.000000,0.001592,0.000000,0.000000,-0.021616,0.600627,0.003324,0.000000
1666146488.170638,,,,,,,,,,,,,,,,,,,,,,,,,,,,,,,,,,48962.000000,1663128463.158916,0.001000,0.000000,0.000000,0.000000,0.000000,0.000000,0.001000,0.000000,0.000000,0.000000,0.000000,1000000.000000,0.000000,0.000000,0.000000,1000000.000000,0.000000,0.000000,1000000.000000,0.000000,0.030000,0.000000,0.000000,0.994827,0.000000,0.000000,-11.660201,-0.101579,23.706731,5.534603,0.000000,0.001000,0.000000,0.000000,0.000000,0.000000,0.000000,0.001000,0.000000,0.000000,0.000000,0.000000,1000000.000000,0.000000,0.000000,0.000000,1000000.000000,0.000000,0.000000,1000000.000000,0.000000,0.030000,0.000000,0.000000,-0.002807,0.590000,0.000000,0.000000,,,,,,,,,,,,,,,,,,,,,,,,,,,,,,,,,,,,,,,,,,,,,,,,,,,,,,,,,,,,
1666146488.198531,,,,,,,,,,,,,,,,,,,,,,,,,,,,,,,,,,,,,,,,,,,,,,,,,,,,,,,,,,,,,,,,,,,,,,,,,,,,,,,,,,,,,,,,,,,,,,56086.000000,1663128463.176916,30.466222,0.001766,0.000000,0.000000,0.000000,0.000000,30.463351,0.000000,0.000000,0.000000,0.000000,0.000000,0.000000,-0.000000,0.000000,0.000000,0.000000,0.000000,0.000000,0.000000,0.000000,0.000000,0.000000,0.707766,0.000000,0.000000,89.893138,0.706447,0.151527,11.584144,0.000000,0.001363,0.000000,0.000000,0.000000,0.000000,0.000000,0.001363,0.000000,0.000000,0.000000,0.000000,0.000000,0.000000,-0.000000,0.000000,0.000000,0.000000,0.000000,0.000000,0.000000,0.001877,0.000000,0.000000,-0.025344,0.598915,0.011172,0.000000
1666146488.214642,,,,,,,,,,,,,,,,,,,,,,,,,,,,,,,,,,48965.000000,1663128463.191916,0.001000,0.000000,0.000000,0.000000,0.000000,0.000000,0.001000,0.000000,0.000000,0.000000,0.000000,1000000.000000,0.000000,0.000000,0.000000,1000000.000000,0.000000,0.000000,1000000.000000,0.000000,0.030000,0.000000,0.000000,0.994363,0.000000,0.000000,-12.172848,-0.106028,23.723506,5.531040,0.000000,0.001000,0.000000,0.000000,0.000000,0.000000,0.000000,0.001000,0.000000,0.000000,0.000000,0.000000,1000000.000000,0.000000,0.000000,0.000000,1000000.000000,0.000000,0.000000,1000000.000000,0.000000,0.030000,0.000000,0.000000,-0.003158,0.560000,0.000000,0.000000,,,,,,,,,,,,,,,,,,,,,,,,,,,,,,,,,,,,,,,,,,,,,,,,,,,,,,,,,,,,
1666146488.246728,,,,,,,,,,,,,,,,,,,,,,,,,,,,,,,,,,,,,,,,,,,,,,,,,,,,,,,,,,,,,,,,,,,,,,,,,,,,,,,,,,,,,,,,,,,,,,56090.000000,1663128463.219916,30.468373,0.001766,0.000000,0.000000,0.000000,0.000000,30.465502,0.000000,0.000000,0.000000,0.000000,0.000000,0.000000,-0.000000,0.000000,0.000000,0.000000,0.000000,0.000000,0.000000,0.000000,0.000000,0.000000,0.711934,0.000000,0.000000,89.214968,0.702246,0.151859,11.609046,0.000000,0.001104,0.000000,0.000000,0.000000,0.000000,0.000000,0.001104,0.000000,0.000000,0.000000,0.000000,0.000000,0.000000,-0.000000,0.000000,0.000000,0.000000,0.000000,0.000000,0.000000,0.001856,0.000000,0.000000,-0.025509,0.582834,0.004430,0.000000
1666146488.258710,,,,,,,,,,,,,,,,,,,,,,,,,,,,,,,,,,48969.000000,1663128463.235916,0.001000,0.000000,0.000000,0.000000,0.000000,0.000000,0.001000,0.000000,0.000000,0.000000,0.000000,1000000.000000,0.000000,0.000000,0.000000,1000000.000000,0.000000,0.000000,1000000.000000,0.000000,0.030000,0.000000,0.000000,0.993575,0.000000,0.000000,-12.997103,-0.113178,23.745262,5.526145,0.000000,0.001000,0.000000,0.000000,0.000000,0.000000,0.000000,0.001000,0.000000,0.000000,0.000000,0.000000,1000000.000000,0.000000,0.000000,0.000000,1000000.000000,0.000000,0.000000,1000000.000000,0.000000,0.030000,0.000000,0.000000,-0.003684,0.555000,0.000000,0.000000,,,,,,,,,,,,,,,,,,,,,,,,,,,,,,,,,,,,,,,,,,,,,,,,,,,,,,,,,,,,
1666146488.294638,,,,,,,,,,,,,,,,,,,,,,,,,,,,,,,,,,,,,,,,,,,,,,,,,,,,,,,,,,,,,,,,,,,,,,,,,,,,,,,,,,,,,,,,,,,,,,56095.000000,1663128463.275916,30.471174,0.001766,0.000000,0.000000,0.000000,0.000000,30.468304,0.000000,0.000000,0.000000,0.000000,0.000000,0.000000,-0.000000,0.000000,0.000000,0.000000,0.000000,0.000000,0.000000,0.000000,0.000000,0.000000,0.717937,0.000000,0.000000,88.231174,0.696108,0.152148,11.640145,0.000000,0.001555,0.000000,0.000000,0.000000,0.000000,0.000000,0.001555,0.000000,0.000000,0.000000,0.000000,0.000000,0.000000,-0.000000,0.000000,0.000000,0.000000,0.000000,0.000000,0.000000,0.001923,0.000000,0.000000,-0.026109,0.563565,0.012447,0.000000
