__time,/amcl_pose/header/seq,/amcl_pose/header/stamp,/amcl_pose/pose/covariance[0;0],/amcl_pose/pose/covariance[0;1],/amcl_pose/pose/covariance[0;2],/amcl_pose/pose/covariance[0;3],/amcl_pose/pose/covariance[0;4],/amcl_pose/pose/covariance[0;5],/amcl_pose/pose/covariance[1;1],/amcl_pose/pose/covariance[1;2],/amcl_pose/pose/covariance[1;3],/amcl_pose/pose/covariance[1;4],/amcl_pose/pose/covariance[1;5],/amcl_pose/pose/covariance[2;2],/amcl_pose/pose/covariance[2;3],/amcl_pose/pose/covariance[2;4],/amcl_pose/pose/covariance[2;5],/amcl_pose/pose/covariance[3;3],/amcl_pose/pose/covariance[3;4],/amcl_pose/pose/covariance[3;5],/amcl_pose/pose/covariance[4;4],/amcl_pose/pose/covariance[4;5],/amcl_pose/pose/covariance[5;5],/amcl_pose/pose/pose/orientation/pitch_deg,/amcl_pose/pose/pose/orientation/roll_deg,/amcl_pose/pose/pose/orientation/w,/amcl_pose/pose/pose/orientation/x,/amcl_pose/pose/pose/orientation/y,/amcl_pose/pose/pose/orientation/yaw_deg,/amcl_pose/pose/pose/orientation/z,/amcl_pose/pose/pose/position/x,/amcl_pose/pose/pose/position/y,/amcl_pose/pose/pose/position/z,/odom/header/seq,/odom/header/stamp,/odom/pose/covariance[0;0],/odom/pose/covariance[0;1],/odom/pose/covariance[0;2],/odom/pose/covariance[0;3],/odom/pose/covariance[0;4],/odom/pose/covariance[0;5],/odom/pose/covariance[1;1],/odom/pose/covariance[1;2],/odom/pose/covariance[1;3],/odom/pose/covariance[1;4],/odom/pose/covariance[1;5],/odom/pose/covariance[2;2],/odom/pose/covariance[2;3],/odom/pose/covariance[2;4],/odom/pose/covariance[2;5],/odom/pose/covariance[3;3],/odom/pose/covariance[3;4],/odom/pose/covariance[3;5],/odom/pose/covariance[4;4],/odom/pose/covariance[4;5],/odom/pose/covariance[5;5],/odom/pose/pose/orientation/pitch_deg,/odom/pose/pose/orientation/roll_deg,/odom/pose/pose/orientation/w,/odom/pose/pose/orientation/x,/odom/pose/pose/orientation/y,/odom/pose/pose/orientation/yaw_deg,/odom/pose/pose/orientation/z,/odom/pose/pose/position/x,/odom/pose/pose/position/y,/odom/pose/pose/position/z,/odom/twist/covariance[0;0],/odom/twist/covariance[0;1],/odom/twist/covariance[0;2],/odom/twist/covariance[0;3],/odom/twist/covariance[0;4],/odom/twist/covariance[0;5],/odom/twist/covariance[1;1],/odom/twist/covariance[1;2],/odom/twist/covariance[1;3],/odom/twist/covariance[1;4],/odom/twist/covariance[1;5],/odom/twist/covariance[2;2],/odom/twist/covariance[2;3],/odom/twist/covariance[2;4],/odom/twist/covariance[2;5],/odom/twist/covariance[3;3],/odom/twist/covariance[3;4],/odom/twist/covariance[3;5],/odom/twist/covariance[4;4],/odom/twist/covariance[4;5],/odom/twist/covariance[5;5],/odom/twist/twist/angular/x,/odom/twist/twist/angular/y,/odom/twist/twist/angular/z,/odom/twist/twist/linear/x,/odom/twist/twist/linear/y,/odom/twist/twist/linear/z,/odometry/filtered/header/seq,/odometry/filtered/header/stamp,/odometry/filtered/pose/covariance[0;0],/odometry/filtered/pose/covariance[0;1],/odometry/filtered/pose/covariance[0;2],/odometry/filtered/pose/covariance[0;3],/odometry/filtered/pose/covariance[0;4],/odometry/filtered/pose/covariance[0;5],/odometry/filtered/pose/covariance[1;1],/odometry/filtered/pose/covariance[1;2],/odometry/filtered/pose/covariance[1;3],/odometry/filtered/pose/covariance[1;4],/odometry/filtered/pose/covariance[1;5],/odometry/filtered/pose/covariance[2;2],/odometry/filtered/pose/covariance[2;3],/odometry/filtered/pose/covariance[2;4],/odometry/filtered/pose/covariance[2;5],/odometry/filtered/pose/covariance[3;3],/odometry/filtered/pose/covariance[3;4],/odometry/filtered/pose/covariance[3;5],/odometry/filtered/pose/covariance[4;4],/odometry/filtered/pose/covariance[4;5],/odometry/filtered/pose/covariance[5;5],/odometry/filtered/pose/pose/orientation/pitch_deg,/odometry/filtered/pose/pose/orientation/roll_deg,/odometry/filtered/pose/pose/orientation/w,/odometry/filtered/pose/pose/orientation/x,/odometry/filtered/pose/pose/orientation/y,/odometry/filtered/pose/pose/orientation/yaw_deg,/odometry/filtered/pose/pose/orientation/z,/odometry/filtered/pose/pose/position/x,/odometry/filtered/pose/pose/position/y,/odometry/filtered/pose/pose/position/z,/odometry/filtered/twist/covariance[0;0],/odometry/filtered/twist/covariance[0;1],/odometry/filtered/twist/covariance[0;2],/odometry/filtered/twist/covariance[0;3],/odometry/filtered/twist/covariance[0;4],/odometry/filtered/twist/covariance[0;5],/odometry/filtered/twist/covariance[1;1],/odometry/filtered/twist/covariance[1;2],/odometry/filtered/twist/covariance[1;3],/odometry/filtered/twist/covariance[1;4],/odometry/filtered/twist/covariance[1;5],/odometry/filtered/twist/covariance[2;2],/odometry/filtered/twist/covariance[2;3],/odometry/filtered/twist/covariance[2;4],/odometry/filtered/twist/covariance[2;5],/odometry/filtered/twist/covariance[3;3],/odometry/filtered/twist/covariance[3;4],/odometry/filtered/twist/covariance[3;5],/odometry/filtered/twist/covariance[4;4],/odometry/filtered/twist/covariance[4;5],/odometry/filtered/twist/covariance[5;5],/odometry/filtered/twist/twist/angular/x,/odometry/filtered/twist/twist/angular/y,/odometry/filtered/twist/twist/angular/z,/odometry/filtered/twist/twist/linear/x,/odometry/filtered/twist/twist/linear/y,/odometry/filtered/twist/twist/linear/z
1666148775.808727,,,,,,,,,,,,,,,,,,,,,,,,,,,,,,,,,,38377.000000,1663128330.845617,0.000000,0.000000,0.000000,0.000000,0.000000,0.000000,0.001000,0.000000,0.000000,0.000000,0.000000,1000000.000000,0.000000,0.000000,0.000000,1000000.000000,0.000000,0.000000,1000000.000000,0.000000,0.000000,0.000000,0.000000,0.596075,0.000000,0.000000,-106.821446,-0.802929,6.878571,-4.801472,0.000000,0.000000,0.000000,0.000000,0.000000,0.000000,0.000000,0.001000,0.000000,0.000000,0.000000,0.000000,1000000.000000,0.000000,0.000000,0.000000,1000000.000000,0.000000,0.000000,1000000.000000,0.000000,0.000000,0.000000,0.000000,0.000000,0.000000,0.000000,0.000000,,,,,,,,,,,,,,,,,,,,,,,,,,,,,,,,,,,,,,,,,,,,,,,,,,,,,,,,,,,,
1666148775.808767,,,,,,,,,,,,,,,,,,,,,,,,,,,,,,,,,,,,,,,,,,,,,,,,,,,,,,,,,,,,,,,,,,,,,,,,,,,,,,,,,,,,,,,,,,,,,,43876.000000,1663128330.829617,23.846760,0.001673,0.000000,0.000000,0.000000,-0.000000,23.844066,0.000000,0.000000,0.000000,-0.000000,0.000000,-0.000000,0.000000,0.000000,0.000000,0.000000,0.000000,0.000000,0.000000,0.000000,0.000000,0.000000,0.831286,0.000000,0.000000,-67.537780,-0.555844,9.618240,-6.793179,0.000000,0.000275,0.000000,0.000000,0.000000,0.000000,0.000000,0.000491,0.000000,0.000000,0.000000,0.000000,0.000000,-0.000000,0.000000,0.000000,0.000000,0.000000,0.000000,0.000000,0.000000,0.000218,0.000000,0.000000,-0.000000,-0.000609,-0.000053,0.000000
1666148775.812759,,,,,,,,,,,,,,,,,,,,,,,,,,,,,,,,,,,,,,,,,,,,,,,,,,,,,,,,,,,,,,,,,,,,,,,,,,,,,,,,,,,,,,,,,,,,,,43877.000000,1663128330.840617,23.847311,0.001673,0.000000,0.000000,0.000000,-0.000000,23.844616,0.000000,0.000000,0.000000,-0.000000,0.000000,-0.000000,0.000000,0.000000,0.000000,0.000000,0.000000,0.000000,0.000000,0.000000,0.000000,0.000000,0.831286,0.000000,0.000000,-67.537780,-0.555844,9.618233,-6.793168,0.000000,0.000551,0.000000,0.000000,0.000000,0.000000,0.000000,0.000767,0.000000,0.000000,0.000000,0.000000,0.000000,-0.000000,0.000000,0.000000,0.000000,0.000000,0.000000,0.000000,0.000000,0.000431,0.000000,0.000000,-0.000002,-0.001290,-0.000120,0.000000
1666148775.822539,,,,,,,,,,,,,,,,,,,,,,,,,,,,,,,,,,,,,,,,,,,,,,,,,,,,,,,,,,,,,,,,,,,,,,,,,,,,,,,,,,,,,,,,,,,,,,43878.000000,1663128330.851617,23.847861,0.001673,0.000000,0.000000,0.000000,-0.000000,23.845166,0.000000,0.000000,0.000000,-0.000000,0.000000,-0.000000,0.000000,0.000000,0.000000,0.000000,0.000000,0.000000,0.000000,0.000000,0.000000,0.000000,0.831286,0.000000,0.000000,-67.537819,-0.555845,9.618222,-6.793154,0.000000,0.000826,0.000000,0.000000,0.000000,0.000000,0.000000,0.001043,0.000000,0.000000,0.000000,0.000000,0.000000,-0.000000,0.000000,0.000000,0.000000,0.000000,0.000000,0.000000,0.000000,0.000634,0.000000,0.000000,-0.000002,-0.001903,-0.000292,0.000000
1666148775.852692,,,,,,,,,,,,,,,,,,,,,,,,,,,,,,,,,,38380.000000,1663128330.878617,0.000000,0.000000,0.000000,0.000000,0.000000,0.000000,0.001000,0.000000,0.000000,0.000000,0.000000,1000000.000000,0.000000,0.000000,0.000000,1000000.000000,0.000000,0.000000,1000000.000000,0.000000,0.000000,0.000000,0.000000,0.596075,0.000000,0.000000,-106.821446,-0.802929,6.878571,-4.801472,0.000000,0.000000,0.000000,0.000000,0.000000,0.000000,0.000000,0.001000,0.000000,0.000000,0.000000,0.000000,1000000.000000,0.000000,0.000000,0.000000,1000000.000000,0.000000,0.000000,1000000.000000,0.000000,0.000000,0.000000,0.000000,0.000000,0.000000,0.000000,0.000000,,,,,,,,,,,,,,,,,,,,,,,,,,,,,,,,,,,,,,,,,,,,,,,,,,,,,,,,,,,,
1666148775.856857,,,,,,,,,,,,,,,,,,,,,,,,,,,,,,,,,,38381.000000,1663128330.889617,0.000000,0.000000,0.000000,0.000000,0.000000,0.000000,0.001000,0.000000,0.000000,0.000000,0.000000,1000000.000000,0.000000,0.000000,0.000000,1000000.000000,0.000000,0.000000,1000000.000000,0.000000,0.000000,0.000000,0.000000,0.596075,0.000000,0.000000,-106.821446,-0.802929,6.878571,-4.801472,0.000000,0.000000,0.000000,0.000000,0.000000,0.000000,0.000000,0.001000,0.000000,0.000000,0.000000,0.000000,1000000.000000,0.000000,0.000000,0.000000,1000000.000000,0.000000,0.000000,1000000.000000,0.000000,0.000000,0.000000,0.000000,0.000000,0.000000,0.000000,0.000000,,,,,,,,,,,,,,,,,,,,,,,,,,,,,,,,,,,,,,,,,,,,,,,,,,,,,,,,,,,,
1666148775.864620,,,,,,,,,,,,,,,,,,,,,,,,,,,,,,,,,,,,,,,,,,,,,,,,,,,,,,,,,,,,,,,,,,,,,,,,,,,,,,,,,,,,,,,,,,,,,,43882.000000,1663128330.895617,23.850061,0.001673,0.000000,0.000000,0.000000,-0.000000,23.847366,0.000000,0.000000,0.000000,-0.000000,0.000000,-0.000000,0.000000,0.000000,0.000000,0.000000,0.000000,0.000000,0.000000,0.000000,0.000000,0.000000,0.831286,0.000000,0.000000,-67.537819,-0.555845,9.618226,-6.793158,0.000000,0.000425,0.000000,0.000000,0.000000,0.000000,0.000000,0.000819,0.000000,0.000000,0.000000,0.000000,0.000000,-0.000000,0.000000,0.000000,0.000000,0.000000,0.000000,0.000000,0.000000,0.000335,0.000000,0.000000,-0.000000,-0.001052,-0.000211,0.000000
1666148775.869533,,,,,,,,,,,,,,,,,,,,,,,,,,,,,,,,,,38382.000000,1663128330.900617,0.000000,0.000000,0.000000,0.000000,0.000000,0.000000,0.001000,0.000000,0.000000,0.000000,0.000000,1000000.000000,0.000000,0.000000,0.000000,1000000.000000,0.000000,0.000000,1000000.000000,0.000000,0.000000,0.000000,0.000000,0.596075,0.000000,0.000000,-106.821446,-0.802929,6.878571,-4.801472,0.000000,0.000000,0.000000,0.000000,0.000000,0.000000,0.000000,0.001000,0.000000,0.000000,0.000000,0.000000,1000000.000000,0.000000,0.000000,0.000000,1000000.000000,0.000000,0.000000,1000000.000000,0.000000,0.000000,0.000000,0.000000,0.000000,0.000000,0.000000,0.000000,,,,,,,,,,,,,,,,,,,,,,,,,,,,,,,,,,,,,,,,,,,,,,,,,,,,,,,,,,,,
1666148775.908668,,,,,,,,,,,,,,,,,,,,,,,,,,,,,,,,,,,,,,,,,,,,,,,,,,,,,,,,,,,,,,,,,,,,,,,,,,,,,,,,,,,,,,,,,,,,,,43885.000000,1663128330.928617,23.851712,0.001673,0.000000,0.000000,0.000000,-0.000000,23.849016,0.000000,0.000000,0.000000,-0.000000,0.000000,-0.000000,0.000000,0.000000,0.000000,0.000000,0.000000,0.000000,0.000000,0.000000,0.000000,0.000000,0.831286,0.000000,0.000000,-67.537819,-0.555845,9.618223,-6.793151,0.000000,0.000250,0.000000,0.000000,0.000000,0.000000,0.000000,0.000520,0.000000,0.000000,0.000000,0.000000,0.000000,-0.000000,0.000000,0.000000,0.000000,0.000000,0.000000,0.000000,0.000000,0.000198,0.000000,0.000000,-0.000001,-0.000625,-0.000124,0.000000
1666148775.912815,,,,,,,,,,,,,,,,,,,,,,,,,,,,,,,,,,,,,,,,,,,,,,,,,,,,,,,,,,,,,,,,,,,,,,,,,,,,,,,,,,,,,,,,,,,,,,43886.000000,1663128330.939617,23.852262,0.001673,0.000000,0.000000,0.000000,-0.000000,23.849566,0.000000,0.000000,0.000000,-0.000000,0.000000,-0.000000,0.000000,0.000000,0.000000,0.000000,0.000000,0.000000,0.000000,0.000000,0.000000,0.000000,0.831286,0.000000,0.000000,-67.537819,-0.555845,9.618215,-6.793140,0.000000,0.000526,0.000000,0.000000,0.000000,0.000000,0.000000,0.000795,0.000000,0.000000,0.000000,0.000000,0.000000,-0.000000,0.000000,0.000000,0.000000,0.000000,0.000000,0.000000,0.000000,0.000412,0.000000,0.000000,-0.000003,-0.001370,-0.000259,0.000000
1666148775.916594,,,,,,,,,,,,,,,,,,,,,,,,,,,,,,,,,,38385.000000,1663128330.944617,0.000000,0.000000,0.000000,0.000000,0.000000,0.000000,0.001000,0.000000,0.000000,0.000000,0.000000,1000000.000000,0.000000,0.000000,0.000000,1000000.000000,0.000000,0.000000,1000000.000000,0.000000,0.000000,0.000000,0.000000,0.596075,0.000000,0.000000,-106.821446,-0.802929,6.878571,-4.801472,0.000000,0.000000,0.000000,0.000000,0.000000,0.000000,0.000000,0.001000,0.000000,0.000000,0.000000,0.000000,1000000.000000,0.000000,0.000000,0.000000,1000000.000000,0.000000,0.000000,1000000.000000,0.000000,0.000000,0.000000,0.000000,0.000000,0.000000,0.000000,0.000000,,,,,,,,,,,,,,,,,,,,,,,,,,,,,,,,,,,,,,,,,,,,,,,,,,,,,,,,,,,,
1666148775.922498,,,,,,,,,,,,,,,,,,,,,,,,,,,,,,,,,,,,,,,,,,,,,,,,,,,,,,,,,,,,,,,,,,,,,,,,,,,,,,,,,,,,,,,,,,,,,,43887.000000,1663128330.950617,23.852812,0.001674,0.000000,0.000000,0.000000,-0.000000,23.850116,0.000000,0.000000,0.000000,-0.000000,0.000000,-0.000000,0.000000,0.000000,0.000000,0.000000,0.000000,0.000000,0.000000,0.000000,0.000000,0.000000,0.831286,0.000000,0.000000,-67.537819,-0.555845,9.618200,-6.793123,0.000000,0.000801,0.000000,0.000000,0.000000,0.000000,0.000000,0.001071,0.000000,0.000000,0.000000,0.000000,0.000000,-0.000000,0.000000,0.000000,0.000000,0.000000,0.000000,0.000000,0.000000,0.000616,0.000000,0.000000,-0.000003,-0.002172,-0.000474,0.000000
1666148775.960726,,,,,,,,,,,,,,,,,,,,,,,,,,,,,,,,,,38389.000000,1663128330.988617,0.000000,0.000000,0.000000,0.000000,0.000000,0.000000,0.001000,0.000000,0.000000,0.000000,0.000000,1000000.000000,0.000000,0.000000,0.000000,1000000.000000,0.000000,0.000000,1000000.000000,0.000000,0.000000,0.000000,0.000000,0.596075,0.000000,0.000000,-106.821446,-0.802929,6.878571,-4.801472,0.000000,0.000000,0.000000,0.000000,0.000000,0.000000,0.000000,0.001000,0.000000,0.000000,0.000000,0.000000,1000000.000000,0.000000,0.000000,0.000000,1000000.000000,0.000000,0.000000,1000000.000000,0.000000,0.000000,0.000000,0.000000,0.000000,0.000000,0.000000,0.000000,,,,,,,,,,,,,,,,,,,,,,,,,,,,,,,,,,,,,,,,,,,,,,,,,,,,,,,,,,,,
1666148775.964964,,,,,,,,,,,,,,,,,,,,,,,,,,,,,,,,,,,,,,,,,,,,,,,,,,,,,,,,,,,,,,,,,,,,,,,,,,,,,,,,,,,,,,,,,,,,,,43891.000000,1663128330.994617,23.855013,0.001674,0.000000,0.000000,0.000000,-0.000000,23.852317,0.000000,0.000000,0.000000,-0.000000,0.000000,-0.000000,0.000000,0.000000,0.000000,0.000000,0.000000,0.000000,0.000000,0.000000,0.000000,0.000000,0.831286,0.000000,0.000000,-67.537819,-0.555845,9.618197,-6.793114,0.000000,0.000701,0.000000,0.000000,0.000000,0.000000,0.000000,0.000984,0.000000,0.000000,0.000000,0.000000,0.000000,-0.000000,0.000000,0.000000,0.000000,0.000000,0.000000,0.000000,0.000000,0.000543,0.000000,0.000000,-0.000005,-0.001943,-0.000421,0.000000
1666148776.008642,,,,,,,,,,,,,,,,,,,,,,,,,,,,,,,,,,38393.000000,1663128331.043617,0.000000,0.000000,0.000000,0.000000,0.000000,0.000000,0.001000,0.000000,0.000000,0.000000,0.000000,1000000.000000,0.000000,0.000000,0.000000,1000000.000000,0.000000,0.000000,1000000.000000,0.000000,0.000000,0.000000,0.000000,0.596075,0.000000,0.000000,-106.821446,-0.802929,6.878571,-4.801472,0.000000,0.000000,0.000000,0.000000,0.000000,0.000000,0.000000,0.001000,0.000000,0.000000,0.000000,0.000000,1000000.000000,0.000000,0.000000,0.000000,1000000.000000,0.000000,0.000000,1000000.000000,0.000000,0.000000,0.000000,0.000000,0.000000,0.000000,0.000000,0.000000,,,,,,,,,,,,,,,,,,,,,,,,,,,,,,,,,,,,,,,,,,,,,,,,,,,,,,,,,,,,
1666148776.012511,,,,,,,,,,,,,,,,,,,,,,,,,,,,,,,,,,,,,,,,,,,,,,,,,,,,,,,,,,,,,,,,,,,,,,,,,,,,,,,,,,,,,,,,,,,,,,43895.000000,1663128331.038617,23.857213,0.001674,0.000000,0.000000,0.000000,-0.000000,23.854517,0.000000,0.000000,0.000000,-0.000000,0.000000,-0.000000,0.000000,0.000000,0.000000,0.000000,0.000000,0.000000,0.000000,0.000000,0.000000,0.000000,0.831287,0.000000,0.000000,-67.537757,-0.555844,9.618196,-6.793112,0.000000,0.000150,0.000000,0.000000,0.000000,0.000000,0.000000,0.000604,0.000000,0.000000,0.000000,0.000000,0.000000,-0.000000,0.000000,0.000000,0.000000,0.000000,0.000000,0.000000,0.000000,0.000119,0.000000,0.000000,0.000001,-0.000473,-0.000329,0.000000
1666148776.052648,,,,,,,,,,,,,,,,,,,,,,,,,,,,,,,,,,38396.000000,1663128331.076617,0.000000,0.000000,0.000000,0.000000,0.000000,0.000000,0.001000,0.000000,0.000000,0.000000,0.000000,1000000.000000,0.000000,0.000000,0.000000,1000000.000000,0.000000,0.000000,1000000.000000,0.000000,0.000000,0.000000,0.000000,0.596075,0.000000,0.000000,-106.821446,-0.802929,6.878571,-4.801472,0.000000,0.000000,0.000000,0.000000,0.000000,0.000000,0.000000,0.001000,0.000000,0.000000,0.000000,0.000000,1000000.000000,0.000000,0.000000,0.000000,1000000.000000,0.000000,0.000000,1000000.000000,0.000000,0.000000,0.000000,0.000000,0.000000,0.000000,0.000000,0.000000,,,,,,,,,,,,,,,,,,,,,,,,,,,,,,,,,,,,,,,,,,,,,,,,,,,,,,,,,,,,
1666148776.056646,,,,,,,,,,,,,,,,,,,,,,,,,,,,,,,,,,38397.000000,1663128331.087617,0.000000,0.000000,0.000000,0.000000,0.000000,0.000000,0.001000,0.000000,0.000000,0.000000,0.000000,1000000.000000,0.000000,0.000000,0.000000,1000000.000000,0.000000,0.000000,1000000.000000,0.000000,0.000000,0.000000,0.000000,0.596075,0.000000,0.000000,-106.821446,-0.802929,6.878571,-4.801472,0.000000,0.000000,0.000000,0.000000,0.000000,0.000000,0.000000,0.001000,0.000000,0.000000,0.000000,0.000000,1000000.000000,0.000000,0.000000,0.000000,1000000.000000,0.000000,0.000000,1000000.000000,0.000000,0.000000,0.000000,0.000000,0.000000,0.000000,0.000000,0.000000,,,,,,,,,,,,,,,,,,,,,,,,,,,,,,,,,,,,,,,,,,,,,,,,,,,,,,,,,,,,
1666148776.060836,,,,,,,,,,,,,,,,,,,,,,,,,,,,,,,,,,,,,,,,,,,,,,,,,,,,,,,,,,,,,,,,,,,,,,,,,,,,,,,,,,,,,,,,,,,,,,43899.000000,1663128331.082617,23.859414,0.001674,0.000000,0.000000,0.000000,-0.000000,23.856717,0.000000,0.000000,0.000000,-0.000000,0.000000,-0.000000,0.000000,0.000000,0.000000,0.000000,0.000000,0.000000,0.000000,0.000000,0.000000,0.000000,0.831286,0.000000,0.000000,-67.537780,-0.555844,9.618188,-6.793109,0.000000,0.000425,0.000000,0.000000,0.000000,0.000000,0.000000,0.000748,0.000000,0.000000,0.000000,0.000000,0.000000,-0.000000,0.000000,0.000000,0.000000,0.000000,0.000000,0.000000,0.000000,0.000335,0.000000,0.000000,-0.000000,-0.001025,-0.000481,0.000000
1666148776.068910,,,,,,,,,,,,,,,,,,,,,,,,,,,,,,,,,,38398.000000,1663128331.109617,0.000000,0.000000,0.000000,0.000000,0.000000,0.000000,0.001000,0.000000,0.000000,0.000000,0.000000,1000000.000000,0.000000,0.000000,0.000000,1000000.000000,0.000000,0.000000,1000000.000000,0.000000,0.000000,0.000000,0.000000,0.596075,0.000000,0.000000,-106.821446,-0.802929,6.878571,-4.801472,0.000000,0.000000,0.000000,0.000000,0.000000,0.000000,0.000000,0.001000,0.000000,0.000000,0.000000,0.000000,1000000.000000,0.000000,0.000000,0.000000,1000000.000000,0.000000,0.000000,1000000.000000,0.000000,0.000000,0.000000,0.000000,0.000000,0.000000,0.000000,0.000000,,,,,,,,,,,,,,,,,,,,,,,,,,,,,,,,,,,,,,,,,,,,,,,,,,,,,,,,,,,,
1666148776.104685,,,,,,,,,,,,,,,,,,,,,,,,,,,,,,,,,,,,,,,,,,,,,,,,,,,,,,,,,,,,,,,,,,,,,,,,,,,,,,,,,,,,,,,,,,,,,,43904.000000,1663128331.137617,23.862165,0.001674,0.000000,0.000000,0.000000,-0.000000,23.859467,0.000000,0.000000,0.000000,-0.000000,0.000000,-0.000000,0.000000,0.000000,0.000000,0.000000,0.000000,0.000000,0.000000,0.000000,0.000000,0.000000,0.831286,0.000000,0.000000,-67.537780,-0.555844,9.618184,-6.793097,0.000000,0.000425,0.000000,0.000000,0.000000,0.000000,0.000000,0.000712,0.000000,0.000000,0.000000,0.000000,0.000000,-0.000000,0.000000,0.000000,0.000000,0.000000,0.000000,0.000000,0.000000,0.000335,0.000000,0.000000,0.000001,-0.000939,-0.000314,0.000000
1666148776.112435,,,,,,,,,,,,,,,,,,,,,,,,,,,,,,,,,,38401.000000,1663128331.142617,0.000000,0.000000,0.000000,0.000000,0.000000,0.000000,0.001000,0.000000,0.000000,0.000000,0.000000,1000000.000000,0.000000,0.000000,0.000000,1000000.000000,0.000000,0.000000,1000000.000000,0.000000,0.000000,0.000000,0.000000,0.596075,0.000000,0.000000,-106.821446,-0.802929,6.878571,-4.801472,0.000000,0.000000,0.000000,0.000000,0.000000,0.000000,0.000000,0.001000,0.000000,0.000000,0.000000,0.000000,1000000.000000,0.000000,0.000000,0.000000,1000000.000000,0.000000,0.000000,1000000.000000,0.000000,0.000000,0.000000,0.000000,0.000000,0.000000,0.000000,0.000000,,,,,,,,,,,,,,,,,,,,,,,,,,,,,,,,,,,,,,,,,,,,,,,,,,,,,,,,,,,,
1666148776.152714,,,,,,,,,,,,,,,,,,,,,,,,,,,,,,,,,,,,,,,,,,,,,,,,,,,,,,,,,,,,,,,,,,,,,,,,,,,,,,,,,,,,,,,,,,,,,,43907.000000,1663128331.170617,23.863815,0.001675,0.000000,0.000000,0.000000,-0.000000,23.861117,0.000000,0.000000,0.000000,-0.000000,0.000000,-0.000000,0.000000,0.000000,0.000000,0.000000,0.000000,0.000000,0.000000,0.000000,0.000000,0.000000,0.831286,0.000000,0.000000,-67.537819,-0.555845,9.618181,-6.793090,0.000000,0.000150,0.000000,0.000000,0.000000,0.000000,0.000000,0.000430,0.000000,0.000000,0.000000,0.000000,0.000000,-0.000000,0.000000,0.000000,0.000000,0.000000,0.000000,0.000000,0.000000,0.000119,0.000000,0.000000,0.000001,-0.000361,-0.000209,0.000000
1666148776.152750,,,,,,,,,,,,,,,,,,,,,,,,,,,,,,,,,,,,,,,,,,,,,,,,,,,,,,,,,,,,,,,,,,,,,,,,,,,,,,,,,,,,,,,,,,,,,,43908.000000,1663128331.181617,23.864365,0.001675,0.000000,0.000000,0.000000,-0.000000,23.861667,0.000000,0.000000,0.000000,-0.000000,0.000000,-0.000000,0.000000,0.000000,0.000000,0.000000,0.000000,0.000000,0.000000,0.000000,0.000000,0.000000,0.831286,0.000000,0.000000,-67.537819,-0.555845,9.618177,-6.793083,0.000000,0.000425,0.000000,0.000000,0.000000,0.000000,0.000000,0.000706,0.000000,0.000000,0.000000,0.000000,0.000000,-0.000000,0.000000,0.000000,0.000000,0.000000,0.000000,0.000000,0.000000,0.000335,0.000000,0.000000,0.000002,-0.001026,-0.000260,0.000000
1666148776.156856,,,,,,,,,,,,,,,,,,,,,,,,,,,,,,,,,,38404.000000,1663128331.175617,0.000000,0.000000,0.000000,0.000000,0.000000,0.000000,0.001000,0.000000,0.000000,0.000000,0.000000,1000000.000000,0.000000,0.000000,0.000000,1000000.000000,0.000000,0.000000,1000000.000000,0.000000,0.000000,0.000000,0.000000,0.596075,0.000000,0.000000,-106.821446,-0.802929,6.878571,-4.801472,0.000000,0.000000,0.000000,0.000000,0.000000,0.000000,0.000000,0.001000,0.000000,0.000000,0.000000,0.000000,1000000.000000,0.000000,0.000000,0.000000,1000000.000000,0.000000,0.000000,1000000.000000,0.000000,0.000000,0.000000,0.000000,0.000000,0.000000,0.000000,0.000000,,,,,,,,,,,,,,,,,,,,,,,,,,,,,,,,,,,,,,,,,,,,,,,,,,,,,,,,,,,,
1666148776.162882,,,,,,,,,,,,,,,,,,,,,,,,,,,,,,,,,,,,,,,,,,,,,,,,,,,,,,,,,,,,,,,,,,,,,,,,,,,,,,,,,,,,,,,,,,,,,,43909.000000,1663128331.192617,23.864916,0.001675,0.000000,0.000000,0.000000,-0.000000,23.862218,0.000000,0.000000,0.000000,-0.000000,0.000000,-0.000000,0.000000,0.000000,0.000000,0.000000,0.000000,0.000000,0.000000,0.000000,0.000000,0.000000,0.831286,0.000000,0.000000,-67.537819,-0.555845,9.618171,-6.793069,0.000000,0.000701,0.000000,0.000000,0.000000,0.000000,0.000000,0.000982,0.000000,0.000000,0.000000,0.000000,0.000000,-0.000000,0.000000,0.000000,0.000000,0.000000,0.000000,0.000000,0.000000,0.000543,0.000000,0.000000,0.000002,-0.001696,-0.000233,0.000000
1666148776.200679,,,,,,,,,,,,,,,,,,,,,,,,,,,,,,,,,,38408.000000,1663128331.230617,0.000000,0.000000,0.000000,0.000000,0.000000,0.000000,0.001000,0.000000,0.000000,0.000000,0.000000,1000000.000000,0.000000,0.000000,0.000000,1000000.000000,0.000000,0.000000,1000000.000000,0.000000,0.000000,0.000000,0.000000,0.596075,0.000000,0.000000,-106.821446,-0.802929,6.878571,-4.801472,0.000000,0.000000,0.000000,0.000000,0.000000,0.000000,0.000000,0.001000,0.000000,0.000000,0.000000,0.000000,1000000.000000,0.000000,0.000000,0.000000,1000000.000000,0.000000,0.000000,1000000.000000,0.000000,0.000000,0.000000,0.000000,0.000000,0.000000,0.000000,0.000000,,,,,,,,,,,,,,,,,,,,,,,,,,,,,,,,,,,,,,,,,,,,,,,,,,,,,,,,,,,,
1666148776.208505,,,,,,,,,,,,,,,,,,,,,,,,,,,,,,,,,,,,,,,,,,,,,,,,,,,,,,,,,,,,,,,,,,,,,,,,,,,,,,,,,,,,,,,,,,,,,,43913.000000,1663128331.237617,23.867166,0.001675,0.000000,0.000000,0.000000,-0.000000,23.864468,0.000000,0.000000,0.000000,-0.000000,0.000000,-0.000000,0.000000,0.000000,0.000000,0.000000,0.000000,0.000000,0.000000,0.000000,0.000000,0.000000,0.831286,0.000000,0.000000,-67.537819,-0.555845,9.618175,-6.793074,0.000000,0.000175,0.000000,0.000000,0.000000,0.000000,0.000000,0.000570,0.000000,0.000000,0.000000,0.000000,0.000000,-0.000000,0.000000,0.000000,0.000000,0.000000,0.000000,0.000000,0.000000,0.000139,0.000000,0.000000,0.000001,-0.000424,-0.000122,0.000000
1666148776.244610,,,,,,,,,,,,,,,,,,,,,,,,,,,,,,,,,,38412.000000,1663128331.274617,0.000000,0.000000,0.000000,0.000000,0.000000,0.000000,0.001000,0.000000,0.000000,0.000000,0.000000,1000000.000000,0.000000,0.000000,0.000000,1000000.000000,0.000000,0.000000,1000000.000000,0.000000,0.000000,0.000000,0.000000,0.596075,0.000000,0.000000,-106.821446,-0.802929,6.878571,-4.801472,0.000000,0.000000,0.000000,0.000000,0.000000,0.000000,0.000000,0.001000,0.000000,0.000000,0.000000,0.000000,1000000.000000,0.000000,0.000000,0.000000,1000000.000000,0.000000,0.000000,1000000.000000,0.000000,0.000000,0.000000,0.000000,0.000000,0.000000,0.000000,0.000000,,,,,,,,,,,,,,,,,,,,,,,,,,,,,,,,,,,,,,,,,,,,,,,,,,,,,,,,,,,,
1666148776.256582,,,,,,,,,,,,,,,,,,,,,,,,,,,,,,,,,,,,,,,,,,,,,,,,,,,,,,,,,,,,,,,,,,,,,,,,,,,,,,,,,,,,,,,,,,,,,,43917.000000,1663128331.280617,23.869317,0.001675,0.000000,0.000000,0.000000,-0.000000,23.866618,0.000000,0.000000,0.000000,-0.000000,0.000000,-0.000000,0.000000,0.000000,0.000000,0.000000,0.000000,0.000000,0.000000,0.000000,0.000000,0.000000,0.831305,0.000000,0.000000,-67.533971,-0.555817,9.618165,-6.793060,0.000000,0.000275,0.000000,0.000000,0.000000,0.000000,0.000000,0.000544,0.000000,0.000000,0.000000,0.000000,0.000000,-0.000000,0.000000,0.000000,0.000000,0.000000,0.000000,0.000000,0.000000,0.000218,0.000000,0.000000,0.000001,-0.000699,-0.000186,0.000000
1666148776.288657,,,,,,,,,,,,,,,,,,,,,,,,,,,,,,,,,,38415.000000,1663128331.318617,0.000000,0.000000,0.000000,0.000000,0.000000,0.000000,0.001000,0.000000,0.000000,0.000000,0.000000,1000000.000000,0.000000,0.000000,0.000000,1000000.000000,0.000000,0.000000,1000000.000000,0.000000,0.000000,0.000000,0.000000,0.596075,0.000000,0.000000,-106.821446,-0.802929,6.878571,-4.801472,0.000000,0.000000,0.000000,0.000000,0.000000,0.000000,0.000000,0.001000,0.000000,0.000000,0.000000,0.000000,1000000.000000,0.000000,0.000000,0.000000,1000000.000000,0.000000,0.000000,1000000.000000,0.000000,0.000000,0.000000,0.000000,0.000000,0.000000,0.000000,0.000000,,,,,,,,,,,,,,,,,,,,,,,,,,,,,,,,,,,,,,,,,,,,,,,,,,,,,,,,,,,,
1666148776.294037,,,,,,,,,,,,,,,,,,,,,,,,,,,,,,,,,,38416.000000,1663128331.329617,0.000000,0.000000,0.000000,0.000000,0.000000,0.000000,0.001000,0.000000,0.000000,0.000000,0.000000,1000000.000000,0.000000,0.000000,0.000000,1000000.000000,0.000000,0.000000,1000000.000000,0.000000,0.000000,0.000000,0.000000,0.596075,0.000000,0.000000,-106.821446,-0.802929,6.878571,-4.801472,0.000000,0.000000,0.000000,0.000000,0.000000,0.000000,0.000000,0.001000,0.000000,0.000000,0.000000,0.000000,1000000.000000,0.000000,0.000000,0.000000,1000000.000000,0.000000,0.000000,1000000.000000,0.000000,0.000000,0.000000,0.000000,0.000000,0.000000,0.000000,0.000000,,,,,,,,,,,,,,,,,,,,,,,,,,,,,,,,,,,,,,,,,,,,,,,,,,,,,,,,,,,,
1666148776.300557,,,,,,,,,,,,,,,,,,,,,,,,,,,,,,,,,,,,,,,,,,,,,,,,,,,,,,,,,,,,,,,,,,,,,,,,,,,,,,,,,,,,,,,,,,,,,,43921.000000,1663128331.324617,23.871517,0.001675,0.000000,0.000000,0.000000,-0.000000,23.868818,0.000000,0.000000,0.000000,-0.000000,0.000000,-0.000000,0.000000,0.000000,0.000000,0.000000,0.000000,0.000000,0.000000,0.000000,0.000000,0.000000,0.831333,0.000000,0.000000,-67.528113,-0.555774,9.618155,-6.793047,0.000000,0.000425,0.000000,0.000000,0.000000,0.000000,0.000000,0.000745,0.000000,0.000000,0.000000,0.000000,0.000000,-0.000000,0.000000,0.000000,0.000000,0.000000,0.000000,0.000000,0.000000,0.000335,0.000000,0.000000,0.000002,-0.001048,-0.000319,0.000000
1666148776.306728,,,,,,,,,,,,,,,,,,,,,,,,,,,,,,,,,,38417.000000,1663128331.340617,0.000000,0.000000,0.000000,0.000000,0.000000,0.000000,0.001000,0.000000,0.000000,0.000000,0.000000,1000000.000000,0.000000,0.000000,0.000000,1000000.000000,0.000000,0.000000,1000000.000000,0.000000,0.000000,0.000000,0.000000,0.596075,0.000000,0.000000,-106.821446,-0.802929,6.878571,-4.801472,0.000000,0.000000,0.000000,0.000000,0.000000,0.000000,0.000000,0.001000,0.000000,0.000000,0.000000,0.000000,1000000.000000,0.000000,0.000000,0.000000,1000000.000000,0.000000,0.000000,1000000.000000,0.000000,0.000000,0.000000,0.000000,0.000000,0.000000,0.000000,0.000000,,,,,,,,,,,,,,,,,,,,,,,,,,,,,,,,,,,,,,,,,,,,,,,,,,,,,,,,,,,,
1666148776.344548,,,,,,,,,,,,,,,,,,,,,,,,,,,,,,,,,,,,,,,,,,,,,,,,,,,,,,,,,,,,,,,,,,,,,,,,,,,,,,,,,,,,,,,,,,,,,,43925.000000,1663128331.368617,23.873718,0.001675,0.000000,0.000000,0.000000,-0.000000,23.871018,0.000000,0.000000,0.000000,-0.000000,0.000000,-0.000000,0.000000,0.000000,0.000000,0.000000,0.000000,0.000000,0.000000,0.000000,0.000000,0.000000,0.831333,0.000000,0.000000,-67.528091,-0.555774,9.618150,-6.793034,0.000000,0.000275,0.000000,0.000000,0.000000,0.000000,0.000000,0.000491,0.000000,0.000000,0.000000,0.000000,0.000000,-0.000000,0.000000,0.000000,0.000000,0.000000,0.000000,0.000000,0.000000,0.000218,0.000000,0.000000,0.000001,-0.000720,-0.000178,0.000000
1666148776.348760,,,,,,,,,,,,,,,,,,,,,,,,,,,,,,,,,,38420.000000,1663128331.384617,0.000000,0.000000,0.000000,0.000000,0.000000,0.000000,0.001000,0.000000,0.000000,0.000000,0.000000,1000000.000000,0.000000,0.000000,0.000000,1000000.000000,0.000000,0.000000,1000000.000000,0.000000,0.000000,0.000000,0.000000,0.596075,0.000000,0.000000,-106.821446,-0.802929,6.878571,-4.801472,0.000000,0.000000,0.000000,0.000000,0.000000,0.000000,0.000000,0.001000,0.000000,0.000000,0.000000,0.000000,1000000.000000,0.000000,0.000000,0.000000,1000000.000000,0.000000,0.000000,1000000.000000,0.000000,0.000000,0.000000,0.000000,0.000000,0.000000,0.000000,0.000000,,,,,,,,,,,,,,,,,,,,,,,,,,,,,,,,,,,,,,,,,,,,,,,,,,,,,,,,,,,,
1666148776.388730,,,,,,,,,,,,,,,,,,,,,,,,,,,,,,,,,,,,,,,,,,,,,,,,,,,,,,,,,,,,,,,,,,,,,,,,,,,,,,,,,,,,,,,,,,,,,,43929.000000,1663128331.412617,23.875919,0.001676,0.000000,0.000000,0.000000,-0.000000,23.873219,0.000000,0.000000,0.000000,-0.000000,0.000000,-0.000000,0.000000,0.000000,0.000000,0.000000,0.000000,0.000000,0.000000,0.000000,0.000000,0.000000,0.831333,0.000000,0.000000,-67.528091,-0.555774,9.618145,-6.793028,0.000000,0.000150,0.000000,0.000000,0.000000,0.000000,0.000000,0.000431,0.000000,0.000000,0.000000,0.000000,0.000000,-0.000000,0.000000,0.000000,0.000000,0.000000,0.000000,0.000000,0.000000,0.000119,0.000000,0.000000,-0.000000,-0.000336,-0.000166,0.000000
1666148776.392582,,,,,,,,,,,,,,,,,,,,,,,,,,,,,,,,,,38423.000000,1663128331.417617,0.000000,0.000000,0.000000,0.000000,0.000000,0.000000,0.001000,0.000000,0.000000,0.000000,0.000000,1000000.000000,0.000000,0.000000,0.000000,1000000.000000,0.000000,0.000000,1000000.000000,0.000000,0.000000,0.000000,0.000000,0.596075,0.000000,0.000000,-106.821446,-0.802929,6.878571,-4.801472,0.000000,0.000000,0.000000,0.000000,0.000000,0.000000,0.000000,0.001000,0.000000,0.000000,0.000000,0.000000,1000000.000000,0.000000,0.000000,0.000000,1000000.000000,0.000000,0.000000,1000000.000000,0.000000,0.000000,0.000000,0.000000,0.000000,0.000000,0.000000,0.000000,,,,,,,,,,,,,,,,,,,,,,,,,,,,,,,,,,,,,,,,,,,,,,,,,,,,,,,,,,,,
1666148776.432565,,,,,,,,,,,,,,,,,,,,,,,,,,,,,,,,,,,,,,,,,,,,,,,,,,,,,,,,,,,,,,,,,,,,,,,,,,,,,,,,,,,,,,,,,,,,,,43933.000000,1663128331.457617,23.878169,0.001676,0.000000,0.000000,0.000000,-0.000000,23.875469,0.000000,0.000000,0.000000,-0.000000,0.000000,-0.000000,0.000000,0.000000,0.000000,0.000000,0.000000,0.000000,0.000000,0.000000,0.000000,0.000000,0.831333,0.000000,0.000000,-67.528091,-0.555774,9.618141,-6.793020,0.000000,0.000175,0.000000,0.000000,0.000000,0.000000,0.000000,0.000455,0.000000,0.000000,0.000000,0.000000,0.000000,-0.000000,0.000000,0.000000,0.000000,0.000000,0.000000,0.000000,0.000000,0.000139,0.000000,0.000000,0.000001,-0.000362,-0.000132,0.000000
1666148776.436728,,,,,,,,,,,,,,,,,,,,,,,,,,,,,,,,,,38427.000000,1663128331.461617,0.000000,0.000000,0.000000,0.000000,0.000000,0.000000,0.001000,0.000000,0.000000,0.000000,0.000000,1000000.000000,0.000000,0.000000,0.000000,1000000.000000,0.000000,0.000000,1000000.000000,0.000000,0.000000,0.000000,0.000000,0.596075,0.000000,0.000000,-106.821446,-0.802929,6.878571,-4.801472,0.000000,0.000000,0.000000,0.000000,0.000000,0.000000,0.000000,0.001000,0.000000,0.000000,0.000000,0.000000,1000000.000000,0.000000,0.000000,0.000000,1000000.000000,0.000000,0.000000,1000000.000000,0.000000,0.000000,0.000000,0.000000,0.000000,0.000000,0.000000,0.000000,,,,,,,,,,,,,,,,,,,,,,,,,,,,,,,,,,,,,,,,,,,,,,,,,,,,,,,,,,,,
1666148776.476583,,,,,,,,,,,,,,,,,,,,,,,,,,,,,,,,,,,,,,,,,,,,,,,,,,,,,,,,,,,,,,,,,,,,,,,,,,,,,,,,,,,,,,,,,,,,,,43937.000000,1663128331.505617,23.880570,0.001676,0.000000,0.000000,0.000000,-0.000000,23.877869,0.000000,0.000000,0.000000,-0.000000,0.000001,-0.000000,0.000000,0.000000,0.000001,0.000000,0.000000,0.000001,0.000000,0.000300,0.000000,0.000000,0.831333,0.000000,0.000000,-67.528075,-0.555774,9.618137,-6.793013,0.000000,0.000000,0.000000,0.000000,0.000000,0.000000,0.000000,0.000375,0.000000,0.000000,0.000000,0.000000,0.000001,-0.000000,0.000000,0.000000,0.000001,0.000000,0.000000,0.000001,0.000000,0.000000,0.000000,0.000000,-0.000000,-0.000000,-0.000089,0.000000
1666148776.480703,,,,,,,,,,,,,,,,,,,,,,,,,,,,,,,,,,38430.000000,1663128331.505617,0.000000,0.000000,0.000000,0.000000,0.000000,0.000000,0.001000,0.000000,0.000000,0.000000,0.000000,1000000.000000,0.000000,0.000000,0.000000,1000000.000000,0.000000,0.000000,1000000.000000,0.000000,0.000000,0.000000,0.000000,0.596075,0.000000,0.000000,-106.821446,-0.802929,6.878571,-4.801472,0.000000,0.000000,0.000000,0.000000,0.000000,0.000000,0.000000,0.001000,0.000000,0.000000,0.000000,0.000000,1000000.000000,0.000000,0.000000,0.000000,1000000.000000,0.000000,0.000000,1000000.000000,0.000000,0.000000,0.000000,0.000000,0.000000,0.000000,0.000000,0.000000,,,,,,,,,,,,,,,,,,,,,,,,,,,,,,,,,,,,,,,,,,,,,,,,,,,,,,,,,,,,
1666148776.481342,,,,,,,,,,,,,,,,,,,,,,,,,,,,,,,,,,38431.000000,1663128331.516617,0.000000,0.000000,0.000000,0.000000,0.000000,0.000000,0.001000,0.000000,0.000000,0.000000,0.000000,1000000.000000,0.000000,0.000000,0.000000,1000000.000000,0.000000,0.000000,1000000.000000,0.000000,0.000000,0.000000,0.000000,0.596075,0.000000,0.000000,-106.821446,-0.802929,6.878571,-4.801472,0.000000,0.000000,0.000000,0.000000,0.000000,0.000000,0.000000,0.001000,0.000000,0.000000,0.000000,0.000000,1000000.000000,0.000000,0.000000,0.000000,1000000.000000,0.000000,0.000000,1000000.000000,0.000000,0.000000,0.000000,0.000000,0.000000,0.000000,0.000000,0.000000,,,,,,,,,,,,,,,,,,,,,,,,,,,,,,,,,,,,,,,,,,,,,,,,,,,,,,,,,,,,
1666148776.494053,,,,,,,,,,,,,,,,,,,,,,,,,,,,,,,,,,38432.000000,1663128331.527617,0.000000,0.000000,0.000000,0.000000,0.000000,0.000000,0.001000,0.000000,0.000000,0.000000,0.000000,1000000.000000,0.000000,0.000000,0.000000,1000000.000000,0.000000,0.000000,1000000.000000,0.000000,0.000000,0.000000,0.000000,0.596075,0.000000,0.000000,-106.821446,-0.802929,6.878571,-4.801472,0.000000,0.000000,0.000000,0.000000,0.000000,0.000000,0.000000,0.001000,0.000000,0.000000,0.000000,0.000000,1000000.000000,0.000000,0.000000,0.000000,1000000.000000,0.000000,0.000000,1000000.000000,0.000000,0.000000,0.000000,0.000000,0.000000,0.000000,0.000000,0.000000,,,,,,,,,,,,,,,,,,,,,,,,,,,,,,,,,,,,,,,,,,,,,,,,,,,,,,,,,,,,
1666148776.520598,,,,,,,,,,,,,,,,,,,,,,,,,,,,,,,,,,,,,,,,,,,,,,,,,,,,,,,,,,,,,,,,,,,,,,,,,,,,,,,,,,,,,,,,,,,,,,43941.000000,1663128331.544617,23.882521,0.001676,0.000000,0.000000,0.000000,-0.000000,23.879819,0.000000,0.000000,0.000000,-0.000000,0.000000,-0.000000,0.000000,0.000000,0.000000,0.000000,0.000000,0.000000,0.000000,0.000000,0.000000,0.000000,0.831333,0.000000,0.000000,-67.528075,-0.555774,9.618127,-6.792996,0.000000,0.000701,0.000000,0.000000,0.000000,0.000000,0.000000,0.001096,0.000000,0.000000,0.000000,0.000000,0.000000,-0.000000,0.000000,0.000000,0.000000,0.000000,0.000000,0.000000,0.000000,0.000543,0.000000,0.000000,-0.000002,-0.001324,-0.000174,0.000000
1666148776.540769,,,,,,,,,,,,,,,,,,,,,,,,,,,,,,,,,,38435.000000,1663128331.560617,0.000000,0.000000,0.000000,0.000000,0.000000,0.000000,0.001000,0.000000,0.000000,0.000000,0.000000,1000000.000000,0.000000,0.000000,0.000000,1000000.000000,0.000000,0.000000,1000000.000000,0.000000,0.000000,0.000000,0.000000,0.596075,0.000000,0.000000,-106.821446,-0.802929,6.878571,-4.801472,0.000000,0.000000,0.000000,0.000000,0.000000,0.000000,0.000000,0.001000,0.000000,0.000000,0.000000,0.000000,1000000.000000,0.000000,0.000000,0.000000,1000000.000000,0.000000,0.000000,1000000.000000,0.000000,0.000000,0.000000,0.000000,0.000000,0.000000,0.000000,0.000000,,,,,,,,,,,,,,,,,,,,,,,,,,,,,,,,,,,,,,,,,,,,,,,,,,,,,,,,,,,,
1666148776.564601,,,,,,,,,,,,,,,,,,,,,,,,,,,,,,,,,,,,,,,,,,,,,,,,,,,,,,,,,,,,,,,,,,,,,,,,,,,,,,,,,,,,,,,,,,,,,,43945.000000,1663128331.588617,23.884721,0.001677,0.000000,0.000000,0.000000,-0.000000,23.882020,0.000000,0.000000,0.000000,-0.000000,0.000000,-0.000000,0.000000,0.000000,0.000000,0.000000,0.000000,0.000000,0.000000,0.000000,0.000000,0.000000,0.831333,0.000000,0.000000,-67.528075,-0.555774,9.618118,-6.792976,0.000000,0.000826,0.000000,0.000000,0.000000,0.000000,0.000000,0.001095,0.000000,0.000000,0.000000,0.000000,0.000000,-0.000000,0.000000,0.000000,0.000000,0.000000,0.000000,0.000000,0.000000,0.000634,0.000000,0.000000,-0.000002,-0.001711,-0.000162,0.000000
1666148776.588760,,,,,,,,,,,,,,,,,,,,,,,,,,,,,,,,,,38439.000000,1663128331.615617,0.000000,0.000000,0.000000,0.000000,0.000000,0.000000,0.001000,0.000000,0.000000,0.000000,0.000000,1000000.000000,0.000000,0.000000,0.000000,1000000.000000,0.000000,0.000000,1000000.000000,0.000000,0.000000,0.000000,0.000000,0.596075,0.000000,0.000000,-106.821446,-0.802929,6.878571,-4.801472,0.000000,0.000000,0.000000,0.000000,0.000000,0.000000,0.000000,0.001000,0.000000,0.000000,0.000000,0.000000,1000000.000000,0.000000,0.000000,0.000000,1000000.000000,0.000000,0.000000,1000000.000000,0.000000,0.000000,0.000000,0.000000,0.000000,0.000000,0.000000,0.000000,,,,,,,,,,,,,,,,,,,,,,,,,,,,,,,,,,,,,,,,,,,,,,,,,,,,,,,,,,,,
1666148776.608594,,,,,,,,,,,,,,,,,,,,,,,,,,,,,,,,,,,,,,,,,,,,,,,,,,,,,,,,,,,,,,,,,,,,,,,,,,,,,,,,,,,,,,,,,,,,,,43949.000000,1663128331.632617,23.886922,0.001677,0.000000,0.000000,0.000000,-0.000000,23.884220,0.000000,0.000000,0.000000,-0.000000,0.000000,-0.000000,0.000000,0.000000,0.000000,0.000000,0.000000,0.000000,0.000000,0.000000,0.000000,0.000000,0.831333,0.000000,0.000000,-67.528075,-0.555774,9.618105,-6.792951,0.000000,0.000977,0.000000,0.000000,0.000000,0.000000,0.000000,0.001297,0.000000,0.000000,0.000000,0.000000,0.000000,-0.000000,0.000000,0.000000,0.000000,0.000000,0.000000,0.000000,0.000000,0.000740,0.000000,0.000000,-0.000006,-0.002218,-0.000230,0.000000
1666148776.632732,,,,,,,,,,,,,,,,,,,,,,,,,,,,,,,,,,38443.000000,1663128331.670617,0.000000,0.000000,0.000000,0.000000,0.000000,0.000000,0.001000,0.000000,0.000000,0.000000,0.000000,1000000.000000,0.000000,0.000000,0.000000,1000000.000000,0.000000,0.000000,1000000.000000,0.000000,0.000000,0.000000,0.000000,0.596075,0.000000,0.000000,-106.821446,-0.802929,6.878571,-4.801472,0.000000,0.000000,0.000000,0.000000,0.000000,0.000000,0.000000,0.001000,0.000000,0.000000,0.000000,0.000000,1000000.000000,0.000000,0.000000,0.000000,1000000.000000,0.000000,0.000000,1000000.000000,0.000000,0.000000,0.000000,0.000000,0.000000,0.000000,0.000000,0.000000,,,,,,,,,,,,,,,,,,,,,,,,,,,,,,,,,,,,,,,,,,,,,,,,,,,,,,,,,,,,
1666148776.652755,,,,,,,,,,,,,,,,,,,,,,,,,,,,,,,,,,,,,,,,,,,,,,,,,,,,,,,,,,,,,,,,,,,,,,,,,,,,,,,,,,,,,,,,,,,,,,43953.000000,1663128331.677617,23.889173,0.001677,0.000000,0.000000,0.000000,-0.000000,23.886470,0.000000,0.000000,0.000000,-0.000000,0.000000,-0.000000,0.000000,0.000000,0.000000,0.000000,0.000000,0.000000,0.000000,0.000000,0.000000,0.000000,0.831333,0.000000,0.000000,-67.528075,-0.555774,9.618102,-6.792943,0.000000,0.000852,0.000000,0.000000,0.000000,0.000000,0.000000,0.001068,0.000000,0.000000,0.000000,0.000000,0.000000,-0.000000,0.000000,0.000000,0.000000,0.000000,0.000000,0.000000,0.000000,0.000653,0.000000,0.000000,-0.000002,-0.002055,-0.000189,0.000000
1666148776.676704,,,,,,,,,,,,,,,,,,,,,,,,,,,,,,,,,,38446.000000,1663128331.703617,0.000000,0.000000,0.000000,0.000000,0.000000,0.000000,0.001000,0.000000,0.000000,0.000000,0.000000,1000000.000000,0.000000,0.000000,0.000000,1000000.000000,0.000000,0.000000,1000000.000000,0.000000,0.000000,0.000000,0.000000,0.596075,0.000000,0.000000,-106.821446,-0.802929,6.878571,-4.801472,0.000000,0.000000,0.000000,0.000000,0.000000,0.000000,0.000000,0.001000,0.000000,0.000000,0.000000,0.000000,1000000.000000,0.000000,0.000000,0.000000,1000000.000000,0.000000,0.000000,1000000.000000,0.000000,0.000000,0.000000,0.000000,0.000000,0.000000,0.000000,0.000000,,,,,,,,,,,,,,,,,,,,,,,,,,,,,,,,,,,,,,,,,,,,,,,,,,,,,,,,,,,,
1666148776.681713,,,,,,,,,,,,,,,,,,,,,,,,,,,,,,,,,,38447.000000,1663128331.714617,0.000000,0.000000,0.000000,0.000000,0.000000,0.000000,0.001000,0.000000,0.000000,0.000000,0.000000,1000000.000000,0.000000,0.000000,0.000000,1000000.000000,0.000000,0.000000,1000000.000000,0.000000,0.000000,0.000000,0.000000,0.596075,0.000000,0.000000,-106.821446,-0.802929,6.878571,-4.801472,0.000000,0.000000,0.000000,0.000000,0.000000,0.000000,0.000000,0.001000,0.000000,0.000000,0.000000,0.000000,1000000.000000,0.000000,0.000000,0.000000,1000000.000000,0.000000,0.000000,1000000.000000,0.000000,0.000000,0.000000,0.000000,0.000000,0.000000,0.000000,0.000000,,,,,,,,,,,,,,,,,,,,,,,,,,,,,,,,,,,,,,,,,,,,,,,,,,,,,,,,,,,,
1666148776.694181,,,,,,,,,,,,,,,,,,,,,,,,,,,,,,,,,,38448.000000,1663128331.725617,0.000000,0.000000,0.000000,0.000000,0.000000,0.000000,0.001000,0.000000,0.000000,0.000000,0.000000,1000000.000000,0.000000,0.000000,0.000000,1000000.000000,0.000000,0.000000,1000000.000000,0.000000,0.000000,0.000000,0.000000,0.596075,0.000000,0.000000,-106.821446,-0.802929,6.878571,-4.801472,0.000000,0.000000,0.000000,0.000000,0.000000,0.000000,0.000000,0.001000,0.000000,0.000000,0.000000,0.000000,1000000.000000,0.000000,0.000000,0.000000,1000000.000000,0.000000,0.000000,1000000.000000,0.000000,0.000000,0.000000,0.000000,0.000000,0.000000,0.000000,0.000000,,,,,,,,,,,,,,,,,,,,,,,,,,,,,,,,,,,,,,,,,,,,,,,,,,,,,,,,,,,,
1666148776.700794,,,,,,,,,,,,,,,,,,,,,,,,,,,,,,,,,,,,,,,,,,,,,,,,,,,,,,,,,,,,,,,,,,,,,,,,,,,,,,,,,,,,,,,,,,,,,,43957.000000,1663128331.720617,23.891323,0.001677,0.000000,0.000000,0.000000,-0.000000,23.888620,0.000000,0.000000,0.000000,-0.000000,0.000000,-0.000000,0.000000,0.000000,0.000000,0.000000,0.000000,0.000000,0.000000,0.000000,0.000000,0.000000,0.831333,0.000000,0.000000,-67.528075,-0.555774,9.618101,-6.792942,0.000000,0.000701,0.000000,0.000000,0.000000,0.000000,0.000000,0.000983,0.000000,0.000000,0.000000,0.000000,0.000000,-0.000000,0.000000,0.000000,0.000000,0.000000,0.000000,0.000000,0.000000,0.000543,0.000000,0.000000,0.000002,-0.001633,-0.000198,0.000000
1666148776.740607,,,,,,,,,,,,,,,,,,,,,,,,,,,,,,,,,,38451.000000,1663128331.769617,0.000000,0.000000,0.000000,0.000000,0.000000,0.000000,0.001000,0.000000,0.000000,0.000000,0.000000,1000000.000000,0.000000,0.000000,0.000000,1000000.000000,0.000000,0.000000,1000000.000000,0.000000,0.000000,0.000000,0.000000,0.596075,0.000000,0.000000,-106.821446,-0.802929,6.878571,-4.801472,0.000000,0.000000,0.000000,0.000000,0.000000,0.000000,0.000000,0.001000,0.000000,0.000000,0.000000,0.000000,1000000.000000,0.000000,0.000000,0.000000,1000000.000000,0.000000,0.000000,1000000.000000,0.000000,0.000000,0.000000,0.000000,0.000000,0.000000,0.000000,0.000000,,,,,,,,,,,,,,,,,,,,,,,,,,,,,,,,,,,,,,,,,,,,,,,,,,,,,,,,,,,,
1666148776.744627,,,,,,,,,,,,,,,,,,,,,,,,,,,,,,,,,,,,,,,,,,,,,,,,,,,,,,,,,,,,,,,,,,,,,,,,,,,,,,,,,,,,,,,,,,,,,,43962.000000,1663128331.775617,23.894074,0.001677,0.000000,0.000000,0.000000,-0.000000,23.891370,0.000000,0.000000,0.000000,-0.000000,0.000000,-0.000000,0.000000,0.000000,0.000000,0.000000,0.000000,0.000000,0.000000,0.000000,0.000000,0.000000,0.831333,0.000000,0.000000,-67.528075,-0.555774,9.618098,-6.792941,0.000000,0.000425,0.000000,0.000000,0.000000,0.000000,0.000000,0.000880,0.000000,0.000000,0.000000,0.000000,0.000000,-0.000000,0.000000,0.000000,0.000000,0.000000,0.000000,0.000000,0.000000,0.000335,0.000000,0.000000,-0.000000,-0.000951,-0.000223,0.000000
1666148776.784566,,,,,,,,,,,,,,,,,,,,,,,,,,,,,,,,,,38455.000000,1663128331.813617,0.000000,0.000000,0.000000,0.000000,0.000000,0.000000,0.001000,0.000000,0.000000,0.000000,0.000000,1000000.000000,0.000000,0.000000,0.000000,1000000.000000,0.000000,0.000000,1000000.000000,0.000000,0.000000,0.000000,0.000000,0.596075,0.000000,0.000000,-106.821446,-0.802929,6.878571,-4.801472,0.000000,0.000000,0.000000,0.000000,0.000000,0.000000,0.000000,0.001000,0.000000,0.000000,0.000000,0.000000,1000000.000000,0.000000,0.000000,0.000000,1000000.000000,0.000000,0.000000,1000000.000000,0.000000,0.000000,0.000000,0.000000,0.000000,0.000000,0.000000,0.000000,,,,,,,,,,,,,,,,,,,,,,,,,,,,,,,,,,,,,,,,,,,,,,,,,,,,,,,,,,,,
1666148776.788722,,,,,,,,,,,,,,,,,,,,,,,,,,,,,,,,,,,,,,,,,,,,,,,,,,,,,,,,,,,,,,,,,,,,,,,,,,,,,,,,,,,,,,,,,,,,,,43966.000000,1663128331.819617,23.896275,0.001678,0.000000,0.000000,0.000000,-0.000000,23.893571,0.000000,0.000000,0.000000,-0.000000,0.000000,-0.000000,0.000000,0.000000,0.000000,0.000000,0.000000,0.000000,0.000000,0.000000,0.000000,0.000000,0.831333,0.000000,0.000000,-67.528091,-0.555774,9.618083,-6.792920,0.000000,0.000701,0.000000,0.000000,0.000000,0.000000,0.000000,0.001013,0.000000,0.000000,0.000000,0.000000,0.000000,-0.000000,0.000000,0.000000,0.000000,0.000000,0.000000,0.000000,0.000000,0.000543,0.000000,0.000000,0.000002,-0.001617,-0.000376,0.000000
1666148776.802910,,,,,,,,,,,,,,,,,,,,,,,,,,,,,,,,,,,,,,,,,,,,,,,,,,,,,,,,,,,,,,,,,,,,,,,,,,,,,,,,,,,,,,,,,,,,,,43967.000000,1663128331.830617,23.896825,0.001678,0.000000,0.000000,0.000000,-0.000000,23.894121,0.000000,0.000000,0.000000,-0.000000,0.000000,-0.000000,0.000000,0.000000,0.000000,0.000000,0.000000,0.000000,0.000000,0.000000,0.000000,0.000000,0.831333,0.000000,0.000000,-67.528091,-0.555774,9.618073,-6.792902,0.000000,0.000977,0.000000,0.000000,0.000000,0.000000,0.000000,0.001289,0.000000,0.000000,0.000000,0.000000,0.000000,-0.000000,0.000000,0.000000,0.000000,0.000000,0.000000,0.000000,0.000000,0.000740,0.000000,0.000000,0.000002,-0.002263,-0.000423,0.000000
1666148776.812767,,,,,,,,,,,,,,,,,,,,,,,,,,,,,,,,,,,,,,,,,,,,,,,,,,,,,,,,,,,,,,,,,,,,,,,,,,,,,,,,,,,,,,,,,,,,,,43968.000000,1663128331.841617,23.897375,0.001678,0.000000,0.000000,0.000000,-0.000000,23.894671,0.000000,0.000000,0.000000,-0.000000,0.000000,-0.000000,0.000000,0.000000,0.000000,0.000000,0.000000,0.000000,0.000000,0.000000,0.000000,0.000000,0.831333,0.000000,0.000000,-67.528091,-0.555774,9.618092,-6.792926,0.000000,0.000275,0.000000,0.000000,0.000000,0.000000,0.000000,0.000540,0.000000,0.000000,0.000000,0.000000,0.000000,-0.000000,0.000000,0.000000,0.000000,0.000000,0.000000,0.000000,0.000000,0.000218,0.000000,0.000000,0.000002,-0.000622,-0.000128,0.000000
1666148776.828473,,,,,,,,,,,,,,,,,,,,,,,,,,,,,,,,,,38458.000000,1663128331.857617,0.000000,0.000000,0.000000,0.000000,0.000000,0.000000,0.001000,0.000000,0.000000,0.000000,0.000000,1000000.000000,0.000000,0.000000,0.000000,1000000.000000,0.000000,0.000000,1000000.000000,0.000000,0.000000,0.000000,0.000000,0.596075,0.000000,0.000000,-106.821446,-0.802929,6.878571,-4.801472,0.000000,0.000000,0.000000,0.000000,0.000000,0.000000,0.000000,0.001000,0.000000,0.000000,0.000000,0.000000,1000000.000000,0.000000,0.000000,0.000000,1000000.000000,0.000000,0.000000,1000000.000000,0.000000,0.000000,0.000000,0.000000,0.000000,0.000000,0.000000,0.000000,,,,,,,,,,,,,,,,,,,,,,,,,,,,,,,,,,,,,,,,,,,,,,,,,,,,,,,,,,,,
1666148776.831374,,,,,,,,,,,,,,,,,,,,,,,,,,,,,,,,,,38459.000000,1663128331.868617,0.000000,0.000000,0.000000,0.000000,0.000000,0.000000,0.001000,0.000000,0.000000,0.000000,0.000000,1000000.000000,0.000000,0.000000,0.000000,1000000.000000,0.000000,0.000000,1000000.000000,0.000000,0.000000,0.000000,0.000000,0.596075,0.000000,0.000000,-106.821446,-0.802929,6.878571,-4.801472,0.000000,0.000000,0.000000,0.000000,0.000000,0.000000,0.000000,0.001000,0.000000,0.000000,0.000000,0.000000,1000000.000000,0.000000,0.000000,0.000000,1000000.000000,0.000000,0.000000,1000000.000000,0.000000,0.000000,0.000000,0.000000,0.000000,0.000000,0.000000,0.000000,,,,,,,,,,,,,,,,,,,,,,,,,,,,,,,,,,,,,,,,,,,,,,,,,,,,,,,,,,,,
1666148776.844103,,,,,,,,,,,,,,,,,,,,,,,,,,,,,,,,,,38460.000000,1663128331.879617,0.000000,0.000000,0.000000,0.000000,0.000000,0.000000,0.001000,0.000000,0.000000,0.000000,0.000000,1000000.000000,0.000000,0.000000,0.000000,1000000.000000,0.000000,0.000000,1000000.000000,0.000000,0.000000,0.000000,0.000000,0.596075,0.000000,0.000000,-106.821446,-0.802929,6.878571,-4.801472,0.000000,0.000000,0.000000,0.000000,0.000000,0.000000,0.000000,0.001000,0.000000,0.000000,0.000000,0.000000,1000000.000000,0.000000,0.000000,0.000000,1000000.000000,0.000000,0.000000,1000000.000000,0.000000,0.000000,0.000000,0.000000,0.000000,0.000000,0.000000,0.000000,,,,,,,,,,,,,,,,,,,,,,,,,,,,,,,,,,,,,,,,,,,,,,,,,,,,,,,,,,,,
1666148776.860724,,,,,,,,,,,,,,,,,,,,,,,,,,,,,,,,,,,,,,,,,,,,,,,,,,,,,,,,,,,,,,,,,,,,,,,,,,,,,,,,,,,,,,,,,,,,,,43972.000000,1663128331.885617,23.899575,0.001678,0.000000,0.000000,0.000000,-0.000000,23.896871,0.000000,0.000000,0.000000,-0.000000,0.000000,-0.000000,0.000000,0.000000,0.000000,0.000000,0.000000,0.000000,0.000000,0.000000,0.000000,0.000000,0.831333,0.000000,0.000000,-67.528091,-0.555774,9.618090,-6.792917,0.000000,0.000150,0.000000,0.000000,0.000000,0.000000,0.000000,0.000432,0.000000,0.000000,0.000000,0.000000,0.000000,-0.000000,0.000000,0.000000,0.000000,0.000000,0.000000,0.000000,0.000000,0.000119,0.000000,0.000000,-0.000001,-0.000319,-0.000027,0.000000
1666148776.888733,,,,,,,,,,,,,,,,,,,,,,,,,,,,,,,,,,38463.000000,1663128331.912617,0.000000,0.000000,0.000000,0.000000,0.000000,0.000000,0.001000,0.000000,0.000000,0.000000,0.000000,1000000.000000,0.000000,0.000000,0.000000,1000000.000000,0.000000,0.000000,1000000.000000,0.000000,0.000000,0.000000,0.000000,0.596075,0.000000,0.000000,-106.821446,-0.802929,6.878571,-4.801472,0.000000,0.000000,0.000000,0.000000,0.000000,0.000000,0.000000,0.001000,0.000000,0.000000,0.000000,0.000000,1000000.000000,0.000000,0.000000,0.000000,1000000.000000,0.000000,0.000000,1000000.000000,0.000000,0.000000,0.000000,0.000000,0.000000,0.000000,0.000000,0.000000,,,,,,,,,,,,,,,,,,,,,,,,,,,,,,,,,,,,,,,,,,,,,,,,,,,,,,,,,,,,
1666148776.904563,,,,,,,,,,,,,,,,,,,,,,,,,,,,,,,,,,,,,,,,,,,,,,,,,,,,,,,,,,,,,,,,,,,,,,,,,,,,,,,,,,,,,,,,,,,,,,43976.000000,1663128331.929617,23.901776,0.001678,0.000000,0.000000,0.000000,-0.000000,23.899071,0.000000,0.000000,0.000000,-0.000000,0.000000,-0.000000,0.000000,0.000000,0.000000,0.000000,0.000000,0.000000,0.000000,0.000000,0.000000,0.000000,0.831334,0.000000,0.000000,-67.528052,-0.555774,9.618084,-6.792907,0.000000,0.000150,0.000000,0.000000,0.000000,0.000000,0.000000,0.000430,0.000000,0.000000,0.000000,0.000000,0.000000,-0.000000,0.000000,0.000000,0.000000,0.000000,0.000000,0.000000,0.000000,0.000119,0.000000,0.000000,-0.000000,-0.000325,-0.000080,0.000000
1666148776.932687,,,,,,,,,,,,,,,,,,,,,,,,,,,,,,,,,,38467.000000,1663128331.967617,0.000000,0.000000,0.000000,0.000000,0.000000,0.000000,0.001000,0.000000,0.000000,0.000000,0.000000,1000000.000000,0.000000,0.000000,0.000000,1000000.000000,0.000000,0.000000,1000000.000000,0.000000,0.000000,0.000000,0.000000,0.596075,0.000000,0.000000,-106.821446,-0.802929,6.878571,-4.801472,0.000000,0.000000,0.000000,0.000000,0.000000,0.000000,0.000000,0.001000,0.000000,0.000000,0.000000,0.000000,1000000.000000,0.000000,0.000000,0.000000,1000000.000000,0.000000,0.000000,1000000.000000,0.000000,0.000000,0.000000,0.000000,0.000000,0.000000,0.000000,0.000000,,,,,,,,,,,,,,,,,,,,,,,,,,,,,,,,,,,,,,,,,,,,,,,,,,,,,,,,,,,,
1666148776.948507,,,,,,,,,,,,,,,,,,,,,,,,,,,,,,,,,,,,,,,,,,,,,,,,,,,,,,,,,,,,,,,,,,,,,,,,,,,,,,,,,,,,,,,,,,,,,,43980.000000,1663128331.973617,23.903976,0.001678,0.000000,0.000000,0.000000,-0.000000,23.901271,0.000000,0.000000,0.000000,-0.000000,0.000000,-0.000000,0.000000,0.000000,0.000000,0.000000,0.000000,0.000000,0.000000,0.000000,0.000000,0.000000,0.831334,0.000000,0.000000,-67.528052,-0.555774,9.618077,-6.792892,0.000000,0.000150,0.000000,0.000000,0.000000,0.000000,0.000000,0.000476,0.000000,0.000000,0.000000,0.000000,0.000000,-0.000000,0.000000,0.000000,0.000000,0.000000,0.000000,0.000000,0.000000,0.000119,0.000000,0.000000,0.000001,-0.000369,-0.000071,0.000000
1666148776.976738,,,,,,,,,,,,,,,,,,,,,,,,,,,,,,,,,,38470.000000,1663128332.000617,0.000000,0.000000,0.000000,0.000000,0.000000,0.000000,0.001000,0.000000,0.000000,0.000000,0.000000,1000000.000000,0.000000,0.000000,0.000000,1000000.000000,0.000000,0.000000,1000000.000000,0.000000,0.000000,0.000000,0.000000,0.596075,0.000000,0.000000,-106.821446,-0.802929,6.878571,-4.801472,0.000000,0.000000,0.000000,0.000000,0.000000,0.000000,0.000000,0.001000,0.000000,0.000000,0.000000,0.000000,1000000.000000,0.000000,0.000000,0.000000,1000000.000000,0.000000,0.000000,1000000.000000,0.000000,0.000000,0.000000,0.000000,0.000000,0.000000,0.000000,0.000000,,,,,,,,,,,,,,,,,,,,,,,,,,,,,,,,,,,,,,,,,,,,,,,,,,,,,,,,,,,,
1666148776.981330,,,,,,,,,,,,,,,,,,,,,,,,,,,,,,,,,,38471.000000,1663128332.011617,0.000000,0.000000,0.000000,0.000000,0.000000,0.000000,0.001000,0.000000,0.000000,0.000000,0.000000,1000000.000000,0.000000,0.000000,0.000000,1000000.000000,0.000000,0.000000,1000000.000000,0.000000,0.000000,0.000000,0.000000,0.596075,0.000000,0.000000,-106.821446,-0.802929,6.878571,-4.801472,0.000000,0.000000,0.000000,0.000000,0.000000,0.000000,0.000000,0.001000,0.000000,0.000000,0.000000,0.000000,1000000.000000,0.000000,0.000000,0.000000,1000000.000000,0.000000,0.000000,1000000.000000,0.000000,0.000000,0.000000,0.000000,0.000000,0.000000,0.000000,0.000000,,,,,,,,,,,,,,,,,,,,,,,,,,,,,,,,,,,,,,,,,,,,,,,,,,,,,,,,,,,,
1666148776.992537,,,,,,,,,,,,,,,,,,,,,,,,,,,,,,,,,,,,,,,,,,,,,,,,,,,,,,,,,,,,,,,,,,,,,,,,,,,,,,,,,,,,,,,,,,,,,,43984.000000,1663128332.017617,23.906177,0.001679,0.000000,0.000000,0.000000,-0.000000,23.903472,0.000000,0.000000,0.000000,-0.000000,0.000000,-0.000000,0.000000,0.000000,0.000000,0.000000,0.000000,0.000000,0.000000,0.000000,0.000000,0.000000,0.831334,0.000000,0.000000,-67.528035,-0.555774,9.618060,-6.792869,0.000000,0.000701,0.000000,0.000000,0.000000,0.000000,0.000000,0.001096,0.000000,0.000000,0.000000,0.000000,0.000000,-0.000000,0.000000,0.000000,0.000000,0.000000,0.000000,0.000000,0.000000,0.000542,0.000000,0.000000,0.000003,-0.001751,-0.000277,0.000000
1666148776.994066,,,,,,,,,,,,,,,,,,,,,,,,,,,,,,,,,,38472.000000,1663128332.033617,0.000000,0.000000,0.000000,0.000000,0.000000,0.000000,0.001000,0.000000,0.000000,0.000000,0.000000,1000000.000000,0.000000,0.000000,0.000000,1000000.000000,0.000000,0.000000,1000000.000000,0.000000,0.000000,0.000000,0.000000,0.596075,0.000000,0.000000,-106.821446,-0.802929,6.878571,-4.801472,0.000000,0.000000,0.000000,0.000000,0.000000,0.000000,0.000000,0.001000,0.000000,0.000000,0.000000,0.000000,1000000.000000,0.000000,0.000000,0.000000,1000000.000000,0.000000,0.000000,1000000.000000,0.000000,0.000000,0.000000,0.000000,0.000000,0.000000,0.000000,0.000000,,,,,,,,,,,,,,,,,,,,,,,,,,,,,,,,,,,,,,,,,,,,,,,,,,,,,,,,,,,,
1666148777.036583,,,,,,,,,,,,,,,,,,,,,,,,,,,,,,,,,,38475.000000,1663128332.066617,0.000000,0.000000,0.000000,0.000000,0.000000,0.000000,0.001000,0.000000,0.000000,0.000000,0.000000,1000000.000000,0.000000,0.000000,0.000000,1000000.000000,0.000000,0.000000,1000000.000000,0.000000,0.000000,0.000000,0.000000,0.596075,0.000000,0.000000,-106.821446,-0.802929,6.878571,-4.801472,0.000000,0.000000,0.000000,0.000000,0.000000,0.000000,0.000000,0.001000,0.000000,0.000000,0.000000,0.000000,1000000.000000,0.000000,0.000000,0.000000,1000000.000000,0.000000,0.000000,1000000.000000,0.000000,0.000000,0.000000,0.000000,0.000000,0.000000,0.000000,0.000000,,,,,,,,,,,,,,,,,,,,,,,,,,,,,,,,,,,,,,,,,,,,,,,,,,,,,,,,,,,,
1666148777.036615,,,,,,,,,,,,,,,,,,,,,,,,,,,,,,,,,,,,,,,,,,,,,,,,,,,,,,,,,,,,,,,,,,,,,,,,,,,,,,,,,,,,,,,,,,,,,,43988.000000,1663128332.061617,23.908378,0.001679,0.000000,0.000000,0.000000,-0.000000,23.905672,0.000000,0.000000,0.000000,-0.000000,0.000000,-0.000000,0.000000,0.000000,0.000000,0.000000,0.000000,0.000000,0.000000,0.000000,0.000000,0.000000,0.831333,0.000000,0.000000,-67.528091,-0.555774,9.618056,-6.792850,0.000000,0.000701,0.000000,0.000000,0.000000,0.000000,0.000000,0.001032,0.000000,0.000000,0.000000,0.000000,0.000000,-0.000000,0.000000,0.000000,0.000000,0.000000,0.000000,0.000000,0.000000,0.000543,0.000000,0.000000,-0.000002,-0.001911,-0.000150,0.000000
1666148777.084790,,,,,,,,,,,,,,,,,,,,,,,,,,,,,,,,,,38479.000000,1663128332.110617,0.000000,0.000000,0.000000,0.000000,0.000000,0.000000,0.001000,0.000000,0.000000,0.000000,0.000000,1000000.000000,0.000000,0.000000,0.000000,1000000.000000,0.000000,0.000000,1000000.000000,0.000000,0.000000,0.000000,0.000000,0.596075,0.000000,0.000000,-106.821446,-0.802929,6.878571,-4.801472,0.000000,0.000000,0.000000,0.000000,0.000000,0.000000,0.000000,0.001000,0.000000,0.000000,0.000000,0.000000,1000000.000000,0.000000,0.000000,0.000000,1000000.000000,0.000000,0.000000,1000000.000000,0.000000,0.000000,0.000000,0.000000,0.000000,0.000000,0.000000,0.000000,,,,,,,,,,,,,,,,,,,,,,,,,,,,,,,,,,,,,,,,,,,,,,,,,,,,,,,,,,,,
1666148777.084822,,,,,,,,,,,,,,,,,,,,,,,,,,,,,,,,,,,,,,,,,,,,,,,,,,,,,,,,,,,,,,,,,,,,,,,,,,,,,,,,,,,,,,,,,,,,,,43993.000000,1663128332.117617,23.911179,0.001679,0.000000,0.000000,0.000000,-0.000000,23.908472,0.000000,0.000000,0.000000,-0.000000,0.000000,-0.000000,0.000000,0.000000,0.000000,0.000000,0.000000,0.000000,0.000000,0.000000,0.000000,0.000000,0.831334,0.000000,0.000000,-67.528035,-0.555774,9.618046,-6.792821,0.000000,0.001002,0.000000,0.000000,0.000000,0.000000,0.000000,0.001284,0.000000,0.000000,0.000000,0.000000,0.000000,-0.000000,0.000000,0.000000,0.000000,0.000000,0.000000,0.000000,0.000000,0.000759,0.000000,0.000000,-0.000008,-0.002420,-0.000039,0.000000
1666148777.128745,,,,,,,,,,,,,,,,,,,,,,,,,,,,,,,,,,38482.000000,1663128332.154617,0.000000,0.000000,0.000000,0.000000,0.000000,0.000000,0.001000,0.000000,0.000000,0.000000,0.000000,1000000.000000,0.000000,0.000000,0.000000,1000000.000000,0.000000,0.000000,1000000.000000,0.000000,0.000000,0.000000,0.000000,0.596075,0.000000,0.000000,-106.821446,-0.802929,6.878571,-4.801472,0.000000,0.000000,0.000000,0.000000,0.000000,0.000000,0.000000,0.001000,0.000000,0.000000,0.000000,0.000000,1000000.000000,0.000000,0.000000,0.000000,1000000.000000,0.000000,0.000000,1000000.000000,0.000000,0.000000,0.000000,0.000000,0.000000,0.000000,0.000000,0.000000,,,,,,,,,,,,,,,,,,,,,,,,,,,,,,,,,,,,,,,,,,,,,,,,,,,,,,,,,,,,
1666148777.128777,,,,,,,,,,,,,,,,,,,,,,,,,,,,,,,,,,,,,,,,,,,,,,,,,,,,,,,,,,,,,,,,,,,,,,,,,,,,,,,,,,,,,,,,,,,,,,43996.000000,1663128332.149617,23.912779,0.001679,0.000000,0.000000,0.000000,-0.000000,23.910072,0.000000,0.000000,0.000000,-0.000000,0.000000,-0.000000,0.000000,0.000000,0.000000,0.000000,0.000000,0.000000,0.000000,0.000000,0.000000,0.000000,0.831334,0.000000,0.000000,-67.528035,-0.555774,9.618056,-6.792846,0.000000,0.000150,0.000000,0.000000,0.000000,0.000000,0.000000,0.000550,0.000000,0.000000,0.000000,0.000000,0.000000,-0.000000,0.000000,0.000000,0.000000,0.000000,0.000000,0.000000,0.000000,0.000119,0.000000,0.000000,0.000000,-0.000378,-0.000064,0.000000
