__time,/amcl_pose/header/seq,/amcl_pose/header/stamp,/amcl_pose/pose/covariance[0;0],/amcl_pose/pose/covariance[0;1],/amcl_pose/pose/covariance[0;2],/amcl_pose/pose/covariance[0;3],/amcl_pose/pose/covariance[0;4],/amcl_pose/pose/covariance[0;5],/amcl_pose/pose/covariance[1;1],/amcl_pose/pose/covariance[1;2],/amcl_pose/pose/covariance[1;3],/amcl_pose/pose/covariance[1;4],/amcl_pose/pose/covariance[1;5],/amcl_pose/pose/covariance[2;2],/amcl_pose/pose/covariance[2;3],/amcl_pose/pose/covariance[2;4],/amcl_pose/pose/covariance[2;5],/amcl_pose/pose/covariance[3;3],/amcl_pose/pose/covariance[3;4],/amcl_pose/pose/covariance[3;5],/amcl_pose/pose/covariance[4;4],/amcl_pose/pose/covariance[4;5],/amcl_pose/pose/covariance[5;5],/amcl_pose/pose/pose/orientation/pitch_deg,/amcl_pose/pose/pose/orientation/roll_deg,/amcl_pose/pose/pose/orientation/w,/amcl_pose/pose/pose/orientation/x,/amcl_pose/pose/pose/orientation/y,/amcl_pose/pose/pose/orientation/yaw_deg,/amcl_pose/pose/pose/orientation/z,/amcl_pose/pose/pose/position/x,/amcl_pose/pose/pose/position/y,/amcl_pose/pose/pose/position/z,/odom/header/seq,/odom/header/stamp,/odom/pose/covariance[0;0],/odom/pose/covariance[0;1],/odom/pose/covariance[0;2],/odom/pose/covariance[0;3],/odom/pose/covariance[0;4],/odom/pose/covariance[0;5],/odom/pose/covariance[1;1],/odom/pose/covariance[1;2],/odom/pose/covariance[1;3],/odom/pose/covariance[1;4],/odom/pose/covariance[1;5],/odom/pose/covariance[2;2],/odom/pose/covariance[2;3],/odom/pose/covariance[2;4],/odom/pose/covariance[2;5],/odom/pose/covariance[3;3],/odom/pose/covariance[3;4],/odom/pose/covariance[3;5],/odom/pose/covariance[4;4],/odom/pose/covariance[4;5],/odom/pose/covariance[5;5],/odom/pose/pose/orientation/pitch_deg,/odom/pose/pose/orientation/roll_deg,/odom/pose/pose/orientation/w,/odom/pose/pose/orientation/x,/odom/pose/pose/orientation/y,/odom/pose/pose/orientation/yaw_deg,/odom/pose/pose/orientation/z,/odom/pose/pose/position/x,/odom/pose/pose/position/y,/odom/pose/pose/position/z,/odom/twist/covariance[0;0],/odom/twist/covariance[0;1],/odom/twist/covariance[0;2],/odom/twist/covariance[0;3],/odom/twist/covariance[0;4],/odom/twist/covariance[0;5],/odom/twist/covariance[1;1],/odom/twist/covariance[1;2],/odom/twist/covariance[1;3],/odom/twist/covariance[1;4],/odom/twist/covariance[1;5],/odom/twist/covariance[2;2],/odom/twist/covariance[2;3],/odom/twist/covariance[2;4],/odom/twist/covariance[2;5],/odom/twist/covariance[3;3],/odom/twist/covariance[3;4],/odom/twist/covariance[3;5],/odom/twist/covariance[4;4],/odom/twist/covariance[4;5],/odom/twist/covariance[5;5],/odom/twist/twist/angular/x,/odom/twist/twist/angular/y,/odom/twist/twist/angular/z,/odom/twist/twist/linear/x,/odom/twist/twist/linear/y,/odom/twist/twist/linear/z,/odometry/filtered/header/seq,/odometry/filtered/header/stamp,/odometry/filtered/pose/covariance[0;0],/odometry/filtered/pose/covariance[0;1],/odometry/filtered/pose/covariance[0;2],/odometry/filtered/pose/covariance[0;3],/odometry/filtered/pose/covariance[0;4],/odometry/filtered/pose/covariance[0;5],/odometry/filtered/pose/covariance[1;1],/odometry/filtered/pose/covariance[1;2],/odometry/filtered/pose/covariance[1;3],/odometry/filtered/pose/covariance[1;4],/odometry/filtered/pose/covariance[1;5],/odometry/filtered/pose/covariance[2;2],/odometry/filtered/pose/covariance[2;3],/odometry/filtered/pose/covariance[2;4],/odometry/filtered/pose/covariance[2;5],/odometry/filtered/pose/covariance[3;3],/odometry/filtered/pose/covariance[3;4],/odometry/filtered/pose/covariance[3;5],/odometry/filtered/pose/covariance[4;4],/odometry/filtered/pose/covariance[4;5],/odometry/filtered/pose/covariance[5;5],/odometry/filtered/pose/pose/orientation/pitch_deg,/odometry/filtered/pose/pose/orientation/roll_deg,/odometry/filtered/pose/pose/orientation/w,/odometry/filtered/pose/pose/orientation/x,/odometry/filtered/pose/pose/orientation/y,/odometry/filtered/pose/pose/orientation/yaw_deg,/odometry/filtered/pose/pose/orientation/z,/odometry/filtered/pose/pose/position/x,/odometry/filtered/pose/pose/position/y,/odometry/filtered/pose/pose/position/z,/odometry/filtered/twist/covariance[0;0],/odometry/filtered/twist/covariance[0;1],/odometry/filtered/twist/covariance[0;2],/odometry/filtered/twist/covariance[0;3],/odometry/filtered/twist/covariance[0;4],/odometry/filtered/twist/covariance[0;5],/odometry/filtered/twist/covariance[1;1],/odometry/filtered/twist/covariance[1;2],/odometry/filtered/twist/covariance[1;3],/odometry/filtered/twist/covariance[1;4],/odometry/filtered/twist/covariance[1;5],/odometry/filtered/twist/covariance[2;2],/odometry/filtered/twist/covariance[2;3],/odometry/filtered/twist/covariance[2;4],/odometry/filtered/twist/covariance[2;5],/odometry/filtered/twist/covariance[3;3],/odometry/filtered/twist/covariance[3;4],/odometry/filtered/twist/covariance[3;5],/odometry/filtered/twist/covariance[4;4],/odometry/filtered/twist/covariance[4;5],/odometry/filtered/twist/covariance[5;5],/odometry/filtered/twist/twist/angular/x,/odometry/filtered/twist/twist/angular/y,/odometry/filtered/twist/twist/angular/z,/odometry/filtered/twist/twist/linear/x,/odometry/filtered/twist/twist/linear/y,/odometry/filtered/twist/twist/linear/z
1666148710.476448,,,,,,,,,,,,,,,,,,,,,,,,,,,,,,,,,,,,,,,,,,,,,,,,,,,,,,,,,,,,,,,,,,,,,,,,,,,,,,,,,,,,,,,,,,,,,,49943.000000,1661578070.914014,27.188029,-0.000144,0.000000,0.000000,0.000000,0.000000,27.195170,0.000000,0.000000,0.000000,-0.000000,0.000000,-0.000000,0.000000,0.000000,0.000000,0.000000,0.000000,0.000000,0.000000,0.000000,0.000000,0.000000,0.999688,0.000000,0.000000,2.861242,0.024966,-0.055934,-0.057182,0.000000,0.000400,0.000000,0.000000,0.000000,0.000000,0.000000,0.000797,0.000000,0.000000,0.000000,0.000000,0.000000,-0.000000,0.000000,0.000000,0.000000,0.000000,0.000000,0.000000,0.000000,0.000316,0.000000,0.000000,0.000008,-0.000145,-0.000869,0.000000
1666148710.486287,,,,,,,,,,,,,,,,,,,,,,,,,,,,,,,,,,,,,,,,,,,,,,,,,,,,,,,,,,,,,,,,,,,,,,,,,,,,,,,,,,,,,,,,,,,,,,49944.000000,1661578070.925014,27.188579,-0.000144,0.000000,0.000000,0.000000,0.000000,27.195720,0.000000,0.000000,0.000000,-0.000000,0.000000,-0.000000,0.000000,0.000000,0.000000,0.000000,0.000000,0.000000,0.000000,0.000000,0.000000,0.000000,0.999688,0.000000,0.000000,2.861242,0.024966,-0.055935,-0.057195,0.000000,0.000676,0.000000,0.000000,0.000000,0.000000,0.000000,0.001073,0.000000,0.000000,0.000000,0.000000,0.000000,-0.000000,0.000000,0.000000,0.000000,0.000000,0.000000,0.000000,0.000000,0.000524,0.000000,0.000000,0.000017,-0.000237,-0.001221,0.000000
1666148710.498989,,,,,,,,,,,,,,,,,,,,,,,,,,,,,,,,,,43725.000000,1661578070.931014,0.000000,0.000000,0.000000,0.000000,0.000000,0.000000,0.001000,0.000000,0.000000,0.000000,0.000000,1000000.000000,0.000000,0.000000,0.000000,1000000.000000,0.000000,0.000000,1000000.000000,0.000000,0.000000,0.000000,0.000000,1.000000,0.000000,0.000000,0.010052,0.000088,-0.000050,-0.000000,0.000000,0.000000,0.000000,0.000000,0.000000,0.000000,0.000000,0.001000,0.000000,0.000000,0.000000,0.000000,1000000.000000,0.000000,0.000000,0.000000,1000000.000000,0.000000,0.000000,1000000.000000,0.000000,0.000000,0.000000,0.000000,0.000000,0.000000,0.000000,0.000000,,,,,,,,,,,,,,,,,,,,,,,,,,,,,,,,,,,,,,,,,,,,,,,,,,,,,,,,,,,,
1666148710.530895,,,,,,,,,,,,,,,,,,,,,,,,,,,,,,,,,,,,,,,,,,,,,,,,,,,,,,,,,,,,,,,,,,,,,,,,,,,,,,,,,,,,,,,,,,,,,,49947.000000,1661578070.958014,27.190229,-0.000144,0.000000,0.000000,0.000000,0.000000,27.197370,0.000000,0.000000,0.000000,-0.000000,0.000000,-0.000000,0.000000,0.000000,0.000000,0.000000,0.000000,0.000000,0.000000,0.000000,0.000000,0.000000,0.999687,0.000000,0.000000,2.867029,0.025017,-0.055943,-0.057185,0.000000,0.000551,0.000000,0.000000,0.000000,0.000000,0.000000,0.000819,0.000000,0.000000,0.000000,0.000000,0.000000,-0.000000,0.000000,0.000000,0.000000,0.000000,0.000000,0.000000,0.000000,0.000431,0.000000,0.000000,0.000003,-0.000360,-0.000716,0.000000
1666148710.543013,,,,,,,,,,,,,,,,,,,,,,,,,,,,,,,,,,43728.000000,1661578070.975014,0.000000,0.000000,0.000000,0.000000,0.000000,0.000000,0.001000,0.000000,0.000000,0.000000,0.000000,1000000.000000,0.000000,0.000000,0.000000,1000000.000000,0.000000,0.000000,1000000.000000,0.000000,0.000000,0.000000,0.000000,1.000000,0.000000,0.000000,0.010052,0.000088,-0.000050,-0.000000,0.000000,0.000000,0.000000,0.000000,0.000000,0.000000,0.000000,0.001000,0.000000,0.000000,0.000000,0.000000,1000000.000000,0.000000,0.000000,0.000000,1000000.000000,0.000000,0.000000,1000000.000000,0.000000,0.000000,0.000000,0.000000,0.000000,0.000000,0.000000,0.000000,,,,,,,,,,,,,,,,,,,,,,,,,,,,,,,,,,,,,,,,,,,,,,,,,,,,,,,,,,,,
1666148710.574904,,,,,,,,,,,,,,,,,,,,,,,,,,,,,,,,,,,,,,,,,,,,,,,,,,,,,,,,,,,,,,,,,,,,,,,,,,,,,,,,,,,,,,,,,,,,,,49951.000000,1661578071.002014,27.192430,-0.000144,0.000000,0.000000,0.000000,0.000000,27.199571,0.000000,0.000000,0.000000,-0.000000,0.000000,-0.000000,0.000000,0.000000,0.000000,0.000000,0.000000,0.000000,0.000000,0.000000,0.000000,0.000000,0.999687,0.000000,0.000000,2.867051,0.025017,-0.055946,-0.057187,0.000000,0.000676,0.000000,0.000000,0.000000,0.000000,0.000000,0.000997,0.000000,0.000000,0.000000,0.000000,0.000000,-0.000000,0.000000,0.000000,0.000000,0.000000,0.000000,0.000000,0.000000,0.000524,0.000000,0.000000,-0.000005,-0.000397,-0.000617,0.000000
1666148710.587049,,,,,,,,,,,,,,,,,,,,,,,,,,,,,,,,,,43732.000000,1661578071.019014,0.000000,0.000000,0.000000,0.000000,0.000000,0.000000,0.001000,0.000000,0.000000,0.000000,0.000000,1000000.000000,0.000000,0.000000,0.000000,1000000.000000,0.000000,0.000000,1000000.000000,0.000000,0.000000,0.000000,0.000000,1.000000,0.000000,0.000000,0.010052,0.000088,-0.000050,-0.000000,0.000000,0.000000,0.000000,0.000000,0.000000,0.000000,0.000000,0.001000,0.000000,0.000000,0.000000,0.000000,1000000.000000,0.000000,0.000000,0.000000,1000000.000000,0.000000,0.000000,1000000.000000,0.000000,0.000000,0.000000,0.000000,0.000000,0.000000,0.000000,0.000000,,,,,,,,,,,,,,,,,,,,,,,,,,,,,,,,,,,,,,,,,,,,,,,,,,,,,,,,,,,,
1666148710.619087,,,,,,,,,,,,,,,,,,,,,,,,,,,,,,,,,,,,,,,,,,,,,,,,,,,,,,,,,,,,,,,,,,,,,,,,,,,,,,,,,,,,,,,,,,,,,,49956.000000,1661578071.057014,27.195180,-0.000144,0.000000,0.000000,0.000000,0.000000,27.202322,0.000000,0.000000,0.000000,-0.000000,0.000000,-0.000000,0.000000,0.000000,0.000000,0.000000,0.000000,0.000000,0.000000,0.000000,0.000000,0.000000,0.999688,0.000000,0.000000,2.861284,0.024967,-0.055947,-0.057195,0.000000,0.000826,0.000000,0.000000,0.000000,0.000000,0.000000,0.001042,0.000000,0.000000,0.000000,0.000000,0.000000,-0.000000,0.000000,0.000000,0.000000,0.000000,0.000000,0.000000,0.000000,0.000634,0.000000,0.000000,-0.000016,-0.000348,-0.000684,0.000000
1666148710.635123,,,,,,,,,,,,,,,,,,,,,,,,,,,,,,,,,,43736.000000,1661578071.074014,0.000000,0.000000,0.000000,0.000000,0.000000,0.000000,0.001000,0.000000,0.000000,0.000000,0.000000,1000000.000000,0.000000,0.000000,0.000000,1000000.000000,0.000000,0.000000,1000000.000000,0.000000,0.000000,0.000000,0.000000,1.000000,0.000000,0.000000,0.010052,0.000088,-0.000050,-0.000000,0.000000,0.000000,0.000000,0.000000,0.000000,0.000000,0.000000,0.001000,0.000000,0.000000,0.000000,0.000000,1000000.000000,0.000000,0.000000,0.000000,1000000.000000,0.000000,0.000000,1000000.000000,0.000000,0.000000,0.000000,0.000000,0.000000,0.000000,0.000000,0.000000,,,,,,,,,,,,,,,,,,,,,,,,,,,,,,,,,,,,,,,,,,,,,,,,,,,,,,,,,,,,
1666148710.662963,,,,,,,,,,,,,,,,,,,,,,,,,,,,,,,,,,,,,,,,,,,,,,,,,,,,,,,,,,,,,,,,,,,,,,,,,,,,,,,,,,,,,,,,,,,,,,49959.000000,1661578071.090014,27.196830,-0.000144,0.000000,0.000000,0.000000,0.000000,27.203972,0.000000,0.000000,0.000000,-0.000000,0.000000,-0.000000,0.000000,0.000000,0.000000,0.000000,0.000000,0.000000,0.000000,0.000000,0.000000,0.000000,0.999688,0.000000,0.000000,2.861265,0.024967,-0.055947,-0.057188,0.000000,0.000125,0.000000,0.000000,0.000000,0.000000,0.000000,0.000520,0.000000,0.000000,0.000000,0.000000,0.000000,-0.000000,0.000000,0.000000,0.000000,0.000000,0.000000,0.000000,0.000000,0.000100,0.000000,0.000000,-0.000001,-0.000073,-0.000385,0.000000
1666148710.666411,,,,,,,,,,,,,,,,,,,,,,,,,,,,,,,,,,,,,,,,,,,,,,,,,,,,,,,,,,,,,,,,,,,,,,,,,,,,,,,,,,,,,,,,,,,,,,49960.000000,1661578071.100856,27.197372,-0.000144,0.000000,0.000000,0.000000,0.000000,27.204515,0.000000,0.000000,0.000000,-0.000000,0.000000,-0.000000,0.000000,0.000000,0.000000,0.000000,0.000000,0.000000,0.000000,0.000000,0.000000,0.000000,0.999688,0.000000,0.000000,2.861265,0.024967,-0.055950,-0.057193,0.000000,0.000396,0.000000,0.000000,0.000000,0.000000,0.000000,0.000792,0.000000,0.000000,0.000000,0.000000,0.000000,-0.000000,0.000000,0.000000,0.000000,0.000000,0.000000,0.000000,0.000000,0.000312,0.000000,0.000000,-0.000001,-0.000268,-0.000564,0.000000
1666148710.676490,,,,,,,,,,,,,,,,,,,,,,,,,,,,,,,,,,,,,,,,,,,,,,,,,,,,,,,,,,,,,,,,,,,,,,,,,,,,,,,,,,,,,,,,,,,,,,49961.000000,1661578071.111856,27.197922,-0.000144,0.000000,0.000000,0.000000,0.000000,27.205065,0.000000,0.000000,0.000000,-0.000000,0.000000,-0.000000,0.000000,0.000000,0.000000,0.000000,0.000000,0.000000,0.000000,0.000000,0.000000,0.000000,0.999688,0.000000,0.000000,2.861284,0.024967,-0.055954,-0.057204,0.000000,0.000672,0.000000,0.000000,0.000000,0.000000,0.000000,0.001068,0.000000,0.000000,0.000000,0.000000,0.000000,-0.000000,0.000000,0.000000,0.000000,0.000000,0.000000,0.000000,0.000000,0.000521,0.000000,0.000000,-0.000001,-0.000462,-0.000884,0.000000
1666148710.682982,,,,,,,,,,,,,,,,,,,,,,,,,,,,,,,,,,43740.000000,1661578071.117856,0.000000,0.000000,0.000000,0.000000,0.000000,0.000000,0.001000,0.000000,0.000000,0.000000,0.000000,1000000.000000,0.000000,0.000000,0.000000,1000000.000000,0.000000,0.000000,1000000.000000,0.000000,0.000000,0.000000,0.000000,1.000000,0.000000,0.000000,0.010052,0.000088,-0.000050,-0.000000,0.000000,0.000000,0.000000,0.000000,0.000000,0.000000,0.000000,0.001000,0.000000,0.000000,0.000000,0.000000,1000000.000000,0.000000,0.000000,0.000000,1000000.000000,0.000000,0.000000,1000000.000000,0.000000,0.000000,0.000000,0.000000,0.000000,0.000000,0.000000,0.000000,,,,,,,,,,,,,,,,,,,,,,,,,,,,,,,,,,,,,,,,,,,,,,,,,,,,,,,,,,,,
1666148710.719124,,,,,,,,,,,,,,,,,,,,,,,,,,,,,,,,,,,,,,,,,,,,,,,,,,,,,,,,,,,,,,,,,,,,,,,,,,,,,,,,,,,,,,,,,,,,,,49965.000000,1661578071.155856,27.200122,-0.000144,0.000000,0.000000,0.000000,0.000000,27.207266,0.000000,0.000000,0.000000,-0.000000,0.000000,-0.000000,0.000000,0.000000,0.000000,0.000000,0.000000,0.000000,0.000000,0.000000,0.000000,0.000000,0.999688,0.000000,0.000000,2.861284,0.024967,-0.055970,-0.057212,0.000000,0.000826,0.000000,0.000000,0.000000,0.000000,0.000000,0.001094,0.000000,0.000000,0.000000,0.000000,0.000000,-0.000000,0.000000,0.000000,0.000000,0.000000,0.000000,0.000000,0.000000,0.000634,0.000000,0.000000,0.000007,-0.000841,-0.000931,0.000000
1666148710.726958,,,,,,,,,,,,,,,,,,,,,,,,,,,,,,,,,,43743.000000,1661578071.161856,0.000000,0.000000,0.000000,0.000000,0.000000,0.000000,0.001000,0.000000,0.000000,0.000000,0.000000,1000000.000000,0.000000,0.000000,0.000000,1000000.000000,0.000000,0.000000,1000000.000000,0.000000,0.000000,0.000000,0.000000,1.000000,0.000000,0.000000,0.010052,0.000088,-0.000050,-0.000000,0.000000,0.000000,0.000000,0.000000,0.000000,0.000000,0.000000,0.001000,0.000000,0.000000,0.000000,0.000000,1000000.000000,0.000000,0.000000,0.000000,1000000.000000,0.000000,0.000000,1000000.000000,0.000000,0.000000,0.000000,0.000000,0.000000,0.000000,0.000000,0.000000,,,,,,,,,,,,,,,,,,,,,,,,,,,,,,,,,,,,,,,,,,,,,,,,,,,,,,,,,,,,
1666148710.732176,,,,,,,,,,,,,,,,,,,,,,,,,,,,,,,,,,43744.000000,1661578071.172856,0.000000,0.000000,0.000000,0.000000,0.000000,0.000000,0.001000,0.000000,0.000000,0.000000,0.000000,1000000.000000,0.000000,0.000000,0.000000,1000000.000000,0.000000,0.000000,1000000.000000,0.000000,0.000000,0.000000,0.000000,1.000000,0.000000,0.000000,0.010052,0.000088,-0.000050,-0.000000,0.000000,0.000000,0.000000,0.000000,0.000000,0.000000,0.000000,0.001000,0.000000,0.000000,0.000000,0.000000,1000000.000000,0.000000,0.000000,0.000000,1000000.000000,0.000000,0.000000,1000000.000000,0.000000,0.000000,0.000000,0.000000,0.000000,0.000000,0.000000,0.000000,,,,,,,,,,,,,,,,,,,,,,,,,,,,,,,,,,,,,,,,,,,,,,,,,,,,,,,,,,,,
1666148710.744681,,,,,,,,,,,,,,,,,,,,,,,,,,,,,,,,,,43745.000000,1661578071.183856,0.000000,0.000000,0.000000,0.000000,0.000000,0.000000,0.001000,0.000000,0.000000,0.000000,0.000000,1000000.000000,0.000000,0.000000,0.000000,1000000.000000,0.000000,0.000000,1000000.000000,0.000000,0.000000,0.000000,0.000000,1.000000,0.000000,0.000000,0.010052,0.000088,-0.000050,-0.000000,0.000000,0.000000,0.000000,0.000000,0.000000,0.000000,0.000000,0.001000,0.000000,0.000000,0.000000,0.000000,1000000.000000,0.000000,0.000000,0.000000,1000000.000000,0.000000,0.000000,1000000.000000,0.000000,0.000000,0.000000,0.000000,0.000000,0.000000,0.000000,0.000000,,,,,,,,,,,,,,,,,,,,,,,,,,,,,,,,,,,,,,,,,,,,,,,,,,,,,,,,,,,,
1666148710.763101,,,,,,,,,,,,,,,,,,,,,,,,,,,,,,,,,,,,,,,,,,,,,,,,,,,,,,,,,,,,,,,,,,,,,,,,,,,,,,,,,,,,,,,,,,,,,,49968.000000,1661578071.189856,27.201822,-0.000145,0.000000,0.000000,0.000000,0.000000,27.208966,0.000000,0.000000,0.000000,-0.000000,0.000000,-0.000000,0.000000,0.000000,0.000000,0.000000,0.000000,0.000000,0.000000,0.000000,0.000000,0.000000,0.999688,0.000000,0.000000,2.861284,0.024967,-0.055974,-0.057214,0.000000,0.000701,0.000000,0.000000,0.000000,0.000000,0.000000,0.001032,0.000000,0.000000,0.000000,0.000000,0.000000,-0.000000,0.000000,0.000000,0.000000,0.000000,0.000000,0.000000,0.000000,0.000543,0.000000,0.000000,0.000003,-0.000796,-0.000907,0.000000
1666148710.766570,,,,,,,,,,,,,,,,,,,,,,,,,,,,,,,,,,,,,,,,,,,,,,,,,,,,,,,,,,,,,,,,,,,,,,,,,,,,,,,,,,,,,,,,,,,,,,49969.000000,1661578071.199856,27.202322,-0.000145,0.000000,0.000000,0.000000,0.000000,27.209467,0.000000,0.000000,0.000000,-0.000000,0.000000,-0.000000,0.000000,0.000000,0.000000,0.000000,0.000000,0.000000,0.000000,0.000000,0.000000,0.000000,0.999688,0.000000,0.000000,2.861284,0.024967,-0.055982,-0.057222,0.000000,0.000952,0.000000,0.000000,0.000000,0.000000,0.000000,0.001283,0.000000,0.000000,0.000000,0.000000,0.000000,-0.000000,0.000000,0.000000,0.000000,0.000000,0.000000,0.000000,0.000000,0.000722,0.000000,0.000000,-0.000001,-0.001052,-0.001069,0.000000
1666148710.776622,,,,,,,,,,,,,,,,,,,,,,,,,,,,,,,,,,,,,,,,,,,,,,,,,,,,,,,,,,,,,,,,,,,,,,,,,,,,,,,,,,,,,,,,,,,,,,49970.000000,1661578071.210856,27.202873,-0.000145,0.000000,0.000000,0.000000,0.000000,27.210018,0.000000,0.000000,0.000000,-0.000000,0.000000,-0.000000,0.000000,0.000000,0.000000,0.000000,0.000000,0.000000,0.000000,0.000000,0.000000,0.000000,0.999688,0.000000,0.000000,2.861284,0.024967,-0.055992,-0.057234,0.000000,0.001228,0.000000,0.000000,0.000000,0.000000,0.000000,0.001560,0.000000,0.000000,0.000000,0.000000,0.000000,-0.000000,0.000000,0.000000,0.000000,0.000000,0.000000,0.000000,0.000000,0.000908,0.000000,0.000000,-0.000001,-0.001272,-0.001235,0.000000
1666148710.791162,,,,,,,,,,,,,,,,,,,,,,,,,,,,,,,,,,43748.000000,1661578071.216856,0.000000,0.000000,0.000000,0.000000,0.000000,0.000000,0.001000,0.000000,0.000000,0.000000,0.000000,1000000.000000,0.000000,0.000000,0.000000,1000000.000000,0.000000,0.000000,1000000.000000,0.000000,0.000000,0.000000,0.000000,1.000000,0.000000,0.000000,0.010052,0.000088,-0.000050,-0.000000,0.000000,0.000000,0.000000,0.000000,0.000000,0.000000,0.000000,0.001000,0.000000,0.000000,0.000000,0.000000,1000000.000000,0.000000,0.000000,0.000000,1000000.000000,0.000000,0.000000,1000000.000000,0.000000,0.000000,0.000000,0.000000,0.000000,0.000000,0.000000,0.000000,,,,,,,,,,,,,,,,,,,,,,,,,,,,,,,,,,,,,,,,,,,,,,,,,,,,,,,,,,,,
1666148710.823136,,,,,,,,,,,,,,,,,,,,,,,,,,,,,,,,,,,,,,,,,,,,,,,,,,,,,,,,,,,,,,,,,,,,,,,,,,,,,,,,,,,,,,,,,,,,,,49974.000000,1661578071.254856,27.205073,-0.000145,0.000000,0.000000,0.000000,0.000000,27.212218,0.000000,0.000000,0.000000,-0.000000,0.000000,-0.000000,0.000000,0.000000,0.000000,0.000000,0.000000,0.000000,0.000000,0.000000,0.000000,0.000000,0.999687,0.000000,0.000000,2.867074,0.025017,-0.055997,-0.057223,0.000000,0.001103,0.000000,0.000000,0.000000,0.000000,0.000000,0.001319,0.000000,0.000000,0.000000,0.000000,0.000000,-0.000000,0.000000,0.000000,0.000000,0.000000,0.000000,0.000000,0.000000,0.000826,0.000000,0.000000,0.000006,-0.001263,-0.000857,0.000000
1666148710.839126,,,,,,,,,,,,,,,,,,,,,,,,,,,,,,,,,,43752.000000,1661578071.271856,0.000000,0.000000,0.000000,0.000000,0.000000,0.000000,0.001000,0.000000,0.000000,0.000000,0.000000,1000000.000000,0.000000,0.000000,0.000000,1000000.000000,0.000000,0.000000,1000000.000000,0.000000,0.000000,0.000000,0.000000,1.000000,0.000000,0.000000,0.010052,0.000088,-0.000050,-0.000000,0.000000,0.000000,0.000000,0.000000,0.000000,0.000000,0.000000,0.001000,0.000000,0.000000,0.000000,0.000000,1000000.000000,0.000000,0.000000,0.000000,1000000.000000,0.000000,0.000000,1000000.000000,0.000000,0.000000,0.000000,0.000000,0.000000,0.000000,0.000000,0.000000,,,,,,,,,,,,,,,,,,,,,,,,,,,,,,,,,,,,,,,,,,,,,,,,,,,,,,,,,,,,
1666148710.867079,,,,,,,,,,,,,,,,,,,,,,,,,,,,,,,,,,,,,,,,,,,,,,,,,,,,,,,,,,,,,,,,,,,,,,,,,,,,,,,,,,,,,,,,,,,,,,49975.000000,1661578071.265856,27.205623,-0.000145,0.000000,0.000000,0.000000,0.000000,27.212767,0.000000,0.000000,0.000000,-0.000000,0.000000,-0.000000,0.000000,0.000000,0.000000,0.000000,0.000000,0.000000,0.000000,0.000000,0.000000,0.000000,0.999687,0.000000,0.000000,2.867074,0.025017,-0.055978,-0.057206,0.000000,0.000125,0.000000,0.000000,0.000000,0.000000,0.000000,0.000419,0.000000,0.000000,0.000000,0.000000,0.000000,-0.000000,0.000000,0.000000,0.000000,0.000000,0.000000,0.000000,0.000000,0.000100,0.000000,0.000000,0.000000,-0.000140,-0.000276,0.000000
1666148710.867113,,,,,,,,,,,,,,,,,,,,,,,,,,,,,,,,,,,,,,,,,,,,,,,,,,,,,,,,,,,,,,,,,,,,,,,,,,,,,,,,,,,,,,,,,,,,,,49978.000000,1661578071.299856,27.207323,-0.000145,0.000000,0.000000,0.000000,0.000000,27.214468,0.000000,0.000000,0.000000,-0.000000,0.000000,-0.000000,0.000000,0.000000,0.000000,0.000000,0.000000,0.000000,0.000000,0.000000,0.000000,0.000000,0.999687,0.000000,0.000000,2.867055,0.025017,-0.055988,-0.057227,0.000000,0.000977,0.000000,0.000000,0.000000,0.000000,0.000000,0.001272,0.000000,0.000000,0.000000,0.000000,0.000000,-0.000000,0.000000,0.000000,0.000000,0.000000,0.000000,0.000000,0.000000,0.000742,0.000000,0.000000,-0.000007,-0.000809,-0.000910,0.000000
1666148710.883036,,,,,,,,,,,,,,,,,,,,,,,,,,,,,,,,,,43756.000000,1661578071.326856,0.000000,0.000000,0.000000,0.000000,0.000000,0.000000,0.001000,0.000000,0.000000,0.000000,0.000000,1000000.000000,0.000000,0.000000,0.000000,1000000.000000,0.000000,0.000000,1000000.000000,0.000000,0.000000,0.000000,0.000000,1.000000,0.000000,0.000000,0.010052,0.000088,-0.000050,-0.000000,0.000000,0.000000,0.000000,0.000000,0.000000,0.000000,0.000000,0.001000,0.000000,0.000000,0.000000,0.000000,1000000.000000,0.000000,0.000000,0.000000,1000000.000000,0.000000,0.000000,1000000.000000,0.000000,0.000000,0.000000,0.000000,0.000000,0.000000,0.000000,0.000000,,,,,,,,,,,,,,,,,,,,,,,,,,,,,,,,,,,,,,,,,,,,,,,,,,,,,,,,,,,,
1666148710.911000,,,,,,,,,,,,,,,,,,,,,,,,,,,,,,,,,,,,,,,,,,,,,,,,,,,,,,,,,,,,,,,,,,,,,,,,,,,,,,,,,,,,,,,,,,,,,,49982.000000,1661578071.342856,27.209473,-0.000145,0.000000,0.000000,0.000000,0.000000,27.216619,0.000000,0.000000,0.000000,-0.000000,0.000000,-0.000000,0.000000,0.000000,0.000000,0.000000,0.000000,0.000000,0.000000,0.000000,0.000000,0.000000,0.999688,0.000000,0.000000,2.861287,0.024967,-0.055980,-0.057218,0.000000,0.000400,0.000000,0.000000,0.000000,0.000000,0.000000,0.000855,0.000000,0.000000,0.000000,0.000000,0.000000,-0.000000,0.000000,0.000000,0.000000,0.000000,0.000000,0.000000,0.000000,0.000316,0.000000,0.000000,-0.000004,-0.000291,-0.000543,0.000000
1666148710.926907,,,,,,,,,,,,,,,,,,,,,,,,,,,,,,,,,,43759.000000,1661578071.359856,0.000000,0.000000,0.000000,0.000000,0.000000,0.000000,0.001000,0.000000,0.000000,0.000000,0.000000,1000000.000000,0.000000,0.000000,0.000000,1000000.000000,0.000000,0.000000,1000000.000000,0.000000,0.000000,0.000000,0.000000,1.000000,0.000000,0.000000,0.010052,0.000088,-0.000050,-0.000000,0.000000,0.000000,0.000000,0.000000,0.000000,0.000000,0.000000,0.001000,0.000000,0.000000,0.000000,0.000000,1000000.000000,0.000000,0.000000,0.000000,1000000.000000,0.000000,0.000000,1000000.000000,0.000000,0.000000,0.000000,0.000000,0.000000,0.000000,0.000000,0.000000,,,,,,,,,,,,,,,,,,,,,,,,,,,,,,,,,,,,,,,,,,,,,,,,,,,,,,,,,,,,
1666148710.932242,,,,,,,,,,,,,,,,,,,,,,,,,,,,,,,,,,43760.000000,1661578071.370856,0.000000,0.000000,0.000000,0.000000,0.000000,0.000000,0.001000,0.000000,0.000000,0.000000,0.000000,1000000.000000,0.000000,0.000000,0.000000,1000000.000000,0.000000,0.000000,1000000.000000,0.000000,0.000000,0.000000,0.000000,1.000000,0.000000,0.000000,0.010052,0.000088,-0.000050,-0.000000,0.000000,0.000000,0.000000,0.000000,0.000000,0.000000,0.000000,0.001000,0.000000,0.000000,0.000000,0.000000,1000000.000000,0.000000,0.000000,0.000000,1000000.000000,0.000000,0.000000,1000000.000000,0.000000,0.000000,0.000000,0.000000,0.000000,0.000000,0.000000,0.000000,,,,,,,,,,,,,,,,,,,,,,,,,,,,,,,,,,,,,,,,,,,,,,,,,,,,,,,,,,,,
1666148710.944742,,,,,,,,,,,,,,,,,,,,,,,,,,,,,,,,,,43761.000000,1661578071.381856,0.000000,0.000000,0.000000,0.000000,0.000000,0.000000,0.001000,0.000000,0.000000,0.000000,0.000000,1000000.000000,0.000000,0.000000,0.000000,1000000.000000,0.000000,0.000000,1000000.000000,0.000000,0.000000,0.000000,0.000000,1.000000,0.000000,0.000000,0.010052,0.000088,-0.000050,-0.000000,0.000000,0.000000,0.000000,0.000000,0.000000,0.000000,0.000000,0.001000,0.000000,0.000000,0.000000,0.000000,1000000.000000,0.000000,0.000000,0.000000,1000000.000000,0.000000,0.000000,1000000.000000,0.000000,0.000000,0.000000,0.000000,0.000000,0.000000,0.000000,0.000000,,,,,,,,,,,,,,,,,,,,,,,,,,,,,,,,,,,,,,,,,,,,,,,,,,,,,,,,,,,,
1666148710.959002,,,,,,,,,,,,,,,,,,,,,,,,,,,,,,,,,,,,,,,,,,,,,,,,,,,,,,,,,,,,,,,,,,,,,,,,,,,,,,,,,,,,,,,,,,,,,,49986.000000,1661578071.386856,27.211673,-0.000145,0.000000,0.000000,0.000000,0.000000,27.218819,0.000000,0.000000,0.000000,-0.000000,0.000000,-0.000000,0.000000,0.000000,0.000000,0.000000,0.000000,0.000000,0.000000,0.000000,0.000000,0.000000,0.999688,0.000000,0.000000,2.861268,0.024967,-0.055987,-0.057229,0.000000,0.000676,0.000000,0.000000,0.000000,0.000000,0.000000,0.001009,0.000000,0.000000,0.000000,0.000000,0.000000,-0.000000,0.000000,0.000000,0.000000,0.000000,0.000000,0.000000,0.000000,0.000524,0.000000,0.000000,-0.000001,-0.000515,-0.000805,0.000000
1666148710.986966,,,,,,,,,,,,,,,,,,,,,,,,,,,,,,,,,,43764.000000,1661578071.425856,0.000000,0.000000,0.000000,0.000000,0.000000,0.000000,0.001000,0.000000,0.000000,0.000000,0.000000,1000000.000000,0.000000,0.000000,0.000000,1000000.000000,0.000000,0.000000,1000000.000000,0.000000,0.000000,0.000000,0.000000,1.000000,0.000000,0.000000,0.010052,0.000088,-0.000050,-0.000000,0.000000,0.000000,0.000000,0.000000,0.000000,0.000000,0.000000,0.001000,0.000000,0.000000,0.000000,0.000000,1000000.000000,0.000000,0.000000,0.000000,1000000.000000,0.000000,0.000000,1000000.000000,0.000000,0.000000,0.000000,0.000000,0.000000,0.000000,0.000000,0.000000,,,,,,,,,,,,,,,,,,,,,,,,,,,,,,,,,,,,,,,,,,,,,,,,,,,,,,,,,,,,
1666148711.002938,,,,,,,,,,,,,,,,,,,,,,,,,,,,,,,,,,,,,,,,,,,,,,,,,,,,,,,,,,,,,,,,,,,,,,,,,,,,,,,,,,,,,,,,,,,,,,49990.000000,1661578071.430856,27.213873,-0.000145,0.000000,0.000000,0.000000,0.000000,27.221020,0.000000,0.000000,0.000000,-0.000000,0.000000,-0.000000,0.000000,0.000000,0.000000,0.000000,0.000000,0.000000,0.000000,0.000000,0.000000,0.000000,0.999688,0.000000,0.000000,2.861268,0.024967,-0.055991,-0.057232,0.000000,0.000676,0.000000,0.000000,0.000000,0.000000,0.000000,0.000970,0.000000,0.000000,0.000000,0.000000,0.000000,-0.000000,0.000000,0.000000,0.000000,0.000000,0.000000,0.000000,0.000000,0.000524,0.000000,0.000000,-0.000008,-0.000518,-0.000769,0.000000
1666148711.031072,,,,,,,,,,,,,,,,,,,,,,,,,,,,,,,,,,43767.000000,1661578071.458856,0.000000,0.000000,0.000000,0.000000,0.000000,0.000000,0.001000,0.000000,0.000000,0.000000,0.000000,1000000.000000,0.000000,0.000000,0.000000,1000000.000000,0.000000,0.000000,1000000.000000,0.000000,0.000000,0.000000,0.000000,1.000000,0.000000,0.000000,0.010052,0.000088,-0.000050,-0.000000,0.000000,0.000000,0.000000,0.000000,0.000000,0.000000,0.000000,0.001000,0.000000,0.000000,0.000000,0.000000,1000000.000000,0.000000,0.000000,0.000000,1000000.000000,0.000000,0.000000,1000000.000000,0.000000,0.000000,0.000000,0.000000,0.000000,0.000000,0.000000,0.000000,,,,,,,,,,,,,,,,,,,,,,,,,,,,,,,,,,,,,,,,,,,,,,,,,,,,,,,,,,,,
1666148711.046992,,,,,,,,,,,,,,,,,,,,,,,,,,,,,,,,,,,,,,,,,,,,,,,,,,,,,,,,,,,,,,,,,,,,,,,,,,,,,,,,,,,,,,,,,,,,,,49995.000000,1661578071.485856,27.216623,-0.000145,0.000000,0.000000,0.000000,0.000000,27.223771,0.000000,0.000000,0.000000,-0.000000,0.000000,-0.000000,0.000000,0.000000,0.000000,0.000000,0.000000,0.000000,0.000000,0.000000,0.000000,0.000000,0.999688,0.000000,0.000000,2.861268,0.024967,-0.055993,-0.057236,0.000000,0.000400,0.000000,0.000000,0.000000,0.000000,0.000000,0.000765,0.000000,0.000000,0.000000,0.000000,0.000000,-0.000000,0.000000,0.000000,0.000000,0.000000,0.000000,0.000000,0.000000,0.000316,0.000000,0.000000,-0.000002,-0.000317,-0.000735,0.000000
1666148711.075024,,,,,,,,,,,,,,,,,,,,,,,,,,,,,,,,,,43771.000000,1661578071.513856,0.000000,0.000000,0.000000,0.000000,0.000000,0.000000,0.001000,0.000000,0.000000,0.000000,0.000000,1000000.000000,0.000000,0.000000,0.000000,1000000.000000,0.000000,0.000000,1000000.000000,0.000000,0.000000,0.000000,0.000000,1.000000,0.000000,0.000000,0.010052,0.000088,-0.000050,-0.000000,0.000000,0.000000,0.000000,0.000000,0.000000,0.000000,0.000000,0.001000,0.000000,0.000000,0.000000,0.000000,1000000.000000,0.000000,0.000000,0.000000,1000000.000000,0.000000,0.000000,1000000.000000,0.000000,0.000000,0.000000,0.000000,0.000000,0.000000,0.000000,0.000000,,,,,,,,,,,,,,,,,,,,,,,,,,,,,,,,,,,,,,,,,,,,,,,,,,,,,,,,,,,,
1666148711.090989,,,,,,,,,,,,,,,,,,,,,,,,,,,,,,,,,,,,,,,,,,,,,,,,,,,,,,,,,,,,,,,,,,,,,,,,,,,,,,,,,,,,,,,,,,,,,,49998.000000,1661578071.519856,27.218323,-0.000145,0.000000,0.000000,0.000000,0.000000,27.225471,0.000000,0.000000,0.000000,-0.000000,0.000000,-0.000000,0.000000,0.000000,0.000000,0.000000,0.000000,0.000000,0.000000,0.000000,0.000000,0.000000,0.999688,0.000000,0.000000,2.861265,0.024967,-0.055996,-0.057237,0.000000,0.000150,0.000000,0.000000,0.000000,0.000000,0.000000,0.000583,0.000000,0.000000,0.000000,0.000000,0.000000,-0.000000,0.000000,0.000000,0.000000,0.000000,0.000000,0.000000,0.000000,0.000119,0.000000,0.000000,-0.000001,-0.000126,-0.000560,0.000000
1666148711.096668,,,,,,,,,,,,,,,,,,,,,,,,,,,,,,,,,,,,,,,,,,,,,,,,,,,,,,,,,,,,,,,,,,,,,,,,,,,,,,,,,,,,,,,,,,,,,,49999.000000,1661578071.529856,27.218823,-0.000145,0.000000,0.000000,0.000000,0.000000,27.225971,0.000000,0.000000,0.000000,-0.000000,0.000000,-0.000000,0.000000,0.000000,0.000000,0.000000,0.000000,0.000000,0.000000,0.000000,0.000000,0.000000,0.999687,0.000000,0.000000,2.867051,0.025017,-0.055997,-0.057243,0.000000,0.000400,0.000000,0.000000,0.000000,0.000000,0.000000,0.000834,0.000000,0.000000,0.000000,0.000000,0.000000,-0.000000,0.000000,0.000000,0.000000,0.000000,0.000000,0.000000,0.000000,0.000315,0.000000,0.000000,0.000001,-0.000316,-0.000774,0.000000
1666148711.106913,,,,,,,,,,,,,,,,,,,,,,,,,,,,,,,,,,,,,,,,,,,,,,,,,,,,,,,,,,,,,,,,,,,,,,,,,,,,,,,,,,,,,,,,,,,,,,50000.000000,1661578071.540856,27.219373,-0.000145,0.000000,0.000000,0.000000,0.000000,27.226522,0.000000,0.000000,0.000000,-0.000000,0.000000,-0.000000,0.000000,0.000000,0.000000,0.000000,0.000000,0.000000,0.000000,0.000000,0.000000,0.000000,0.999687,0.000000,0.000000,2.867032,0.025017,-0.056000,-0.057254,0.000000,0.000676,0.000000,0.000000,0.000000,0.000000,0.000000,0.001110,0.000000,0.000000,0.000000,0.000000,0.000000,-0.000000,0.000000,0.000000,0.000000,0.000000,0.000000,0.000000,0.000000,0.000524,0.000000,0.000000,0.000004,-0.000502,-0.001076,0.000000
1666148711.123037,,,,,,,,,,,,,,,,,,,,,,,,,,,,,,,,,,43775.000000,1661578071.557856,0.000000,0.000000,0.000000,0.000000,0.000000,0.000000,0.001000,0.000000,0.000000,0.000000,0.000000,1000000.000000,0.000000,0.000000,0.000000,1000000.000000,0.000000,0.000000,1000000.000000,0.000000,0.000000,0.000000,0.000000,1.000000,0.000000,0.000000,0.010052,0.000088,-0.000050,-0.000000,0.000000,0.000000,0.000000,0.000000,0.000000,0.000000,0.000000,0.001000,0.000000,0.000000,0.000000,0.000000,1000000.000000,0.000000,0.000000,0.000000,1000000.000000,0.000000,0.000000,1000000.000000,0.000000,0.000000,0.000000,0.000000,0.000000,0.000000,0.000000,0.000000,,,,,,,,,,,,,,,,,,,,,,,,,,,,,,,,,,,,,,,,,,,,,,,,,,,,,,,,,,,,
1666148711.147125,,,,,,,,,,,,,,,,,,,,,,,,,,,,,,,,,,,,,,,,,,,,,,,,,,,,,,,,,,,,,,,,,,,,,,,,,,,,,,,,,,,,,,,,,,,,,,50004.000000,1661578071.584856,27.221573,-0.000145,0.000000,0.000000,0.000000,0.000000,27.228722,0.000000,0.000000,0.000000,-0.000000,0.000000,-0.000000,0.000000,0.000000,0.000000,0.000000,0.000000,0.000000,0.000000,0.000000,0.000000,0.000000,0.999687,0.000000,0.000000,2.867032,0.025017,-0.056001,-0.057258,0.000000,0.000676,0.000000,0.000000,0.000000,0.000000,0.000000,0.000972,0.000000,0.000000,0.000000,0.000000,0.000000,-0.000000,0.000000,0.000000,0.000000,0.000000,0.000000,0.000000,0.000000,0.000524,0.000000,0.000000,0.000014,-0.000440,-0.001094,0.000000
1666148711.171118,,,,,,,,,,,,,,,,,,,,,,,,,,,,,,,,,,43779.000000,1661578071.612856,0.000000,0.000000,0.000000,0.000000,0.000000,0.000000,0.001000,0.000000,0.000000,0.000000,0.000000,1000000.000000,0.000000,0.000000,0.000000,1000000.000000,0.000000,0.000000,1000000.000000,0.000000,0.000000,0.000000,0.000000,1.000000,0.000000,0.000000,0.010052,0.000088,-0.000050,-0.000000,0.000000,0.000000,0.000000,0.000000,0.000000,0.000000,0.000000,0.001000,0.000000,0.000000,0.000000,0.000000,1000000.000000,0.000000,0.000000,0.000000,1000000.000000,0.000000,0.000000,1000000.000000,0.000000,0.000000,0.000000,0.000000,0.000000,0.000000,0.000000,0.000000,,,,,,,,,,,,,,,,,,,,,,,,,,,,,,,,,,,,,,,,,,,,,,,,,,,,,,,,,,,,
1666148711.190901,,,,,,,,,,,,,,,,,,,,,,,,,,,,,,,,,,,,,,,,,,,,,,,,,,,,,,,,,,,,,,,,,,,,,,,,,,,,,,,,,,,,,,,,,,,,,,50007.000000,1661578071.623856,27.223523,-0.000145,0.000000,0.000000,0.000000,0.000000,27.230673,0.000000,0.000000,0.000000,-0.000000,0.000001,-0.000000,0.000000,0.000000,0.000001,0.000000,0.000000,0.000001,0.000000,0.000360,0.000000,0.000000,0.999685,0.000000,0.000000,2.876748,0.025102,-0.055999,-0.057248,0.000000,0.000000,0.000000,0.000000,0.000000,0.000000,0.000000,0.000396,0.000000,0.000000,0.000000,0.000000,0.000001,-0.000000,0.000000,0.000000,0.000001,0.000000,0.000000,0.000001,0.000000,0.000000,0.000000,0.000000,0.000000,-0.000000,-0.000458,0.000000
1666148711.196694,,,,,,,,,,,,,,,,,,,,,,,,,,,,,,,,,,,,,,,,,,,,,,,,,,,,,,,,,,,,,,,,,,,,,,,,,,,,,,,,,,,,,,,,,,,,,,50008.000000,1661578071.629856,27.223823,-0.000145,0.000000,0.000000,0.000000,0.000000,27.230973,0.000000,0.000000,0.000000,-0.000000,0.000000,-0.000000,0.000000,0.000000,0.000000,0.000000,0.000000,0.000000,0.000000,0.000000,0.000000,0.000000,0.999685,0.000000,0.000000,2.876748,0.025102,-0.055999,-0.057252,0.000000,0.000150,0.000000,0.000000,0.000000,0.000000,0.000000,0.000546,0.000000,0.000000,0.000000,0.000000,0.000000,-0.000000,0.000000,0.000000,0.000000,0.000000,0.000000,0.000000,0.000000,0.000119,0.000000,0.000000,0.000001,-0.000088,-0.000654,0.000000
1666148711.206837,,,,,,,,,,,,,,,,,,,,,,,,,,,,,,,,,,,,,,,,,,,,,,,,,,,,,,,,,,,,,,,,,,,,,,,,,,,,,,,,,,,,,,,,,,,,,,50009.000000,1661578071.639856,27.224323,-0.000145,0.000000,0.000000,0.000000,0.000000,27.231473,0.000000,0.000000,0.000000,-0.000000,0.000000,-0.000000,0.000000,0.000000,0.000000,0.000000,0.000000,0.000000,0.000000,0.000000,0.000000,0.000000,0.999685,0.000000,0.000000,2.876748,0.025102,-0.055998,-0.057260,0.000000,0.000400,0.000000,0.000000,0.000000,0.000000,0.000000,0.000797,0.000000,0.000000,0.000000,0.000000,0.000000,-0.000000,0.000000,0.000000,0.000000,0.000000,0.000000,0.000000,0.000000,0.000315,0.000000,0.000000,0.000004,-0.000190,-0.000968,0.000000
1666148711.215110,,,,,,,,,,,,,,,,,,,,,,,,,,,,,,,,,,43782.000000,1661578071.645856,0.000000,0.000000,0.000000,0.000000,0.000000,0.000000,0.001000,0.000000,0.000000,0.000000,0.000000,1000000.000000,0.000000,0.000000,0.000000,1000000.000000,0.000000,0.000000,1000000.000000,0.000000,0.000000,0.000000,0.000000,1.000000,0.000000,0.000000,0.010052,0.000088,-0.000050,-0.000000,0.000000,0.000000,0.000000,0.000000,0.000000,0.000000,0.000000,0.001000,0.000000,0.000000,0.000000,0.000000,1000000.000000,0.000000,0.000000,0.000000,1000000.000000,0.000000,0.000000,1000000.000000,0.000000,0.000000,0.000000,0.000000,0.000000,0.000000,0.000000,0.000000,,,,,,,,,,,,,,,,,,,,,,,,,,,,,,,,,,,,,,,,,,,,,,,,,,,,,,,,,,,,
1666148711.219765,,,,,,,,,,,,,,,,,,,,,,,,,,,,,,,,,,43783.000000,1661578071.656856,0.000000,0.000000,0.000000,0.000000,0.000000,0.000000,0.001000,0.000000,0.000000,0.000000,0.000000,1000000.000000,0.000000,0.000000,0.000000,1000000.000000,0.000000,0.000000,1000000.000000,0.000000,0.000000,0.000000,0.000000,1.000000,0.000000,0.000000,0.010052,0.000088,-0.000050,-0.000000,0.000000,0.000000,0.000000,0.000000,0.000000,0.000000,0.000000,0.001000,0.000000,0.000000,0.000000,0.000000,1000000.000000,0.000000,0.000000,0.000000,1000000.000000,0.000000,0.000000,1000000.000000,0.000000,0.000000,0.000000,0.000000,0.000000,0.000000,0.000000,0.000000,,,,,,,,,,,,,,,,,,,,,,,,,,,,,,,,,,,,,,,,,,,,,,,,,,,,,,,,,,,,
1666148711.232200,,,,,,,,,,,,,,,,,,,,,,,,,,,,,,,,,,43784.000000,1661578071.667856,0.000000,0.000000,0.000000,0.000000,0.000000,0.000000,0.001000,0.000000,0.000000,0.000000,0.000000,1000000.000000,0.000000,0.000000,0.000000,1000000.000000,0.000000,0.000000,1000000.000000,0.000000,0.000000,0.000000,0.000000,1.000000,0.000000,0.000000,0.010052,0.000088,-0.000050,-0.000000,0.000000,0.000000,0.000000,0.000000,0.000000,0.000000,0.000000,0.001000,0.000000,0.000000,0.000000,0.000000,1000000.000000,0.000000,0.000000,0.000000,1000000.000000,0.000000,0.000000,1000000.000000,0.000000,0.000000,0.000000,0.000000,0.000000,0.000000,0.000000,0.000000,,,,,,,,,,,,,,,,,,,,,,,,,,,,,,,,,,,,,,,,,,,,,,,,,,,,,,,,,,,,
1666148711.247120,,,,,,,,,,,,,,,,,,,,,,,,,,,,,,,,,,,,,,,,,,,,,,,,,,,,,,,,,,,,,,,,,,,,,,,,,,,,,,,,,,,,,,,,,,,,,,50013.000000,1661578071.683856,27.226524,-0.000145,0.000000,0.000000,0.000000,0.000000,27.233674,0.000000,0.000000,0.000000,-0.000000,0.000000,-0.000000,0.000000,0.000000,0.000000,0.000000,0.000000,0.000000,0.000000,0.000000,0.000000,0.000000,0.999685,0.000000,0.000000,2.876748,0.025102,-0.056003,-0.057267,0.000000,0.000676,0.000000,0.000000,0.000000,0.000000,0.000000,0.001006,0.000000,0.000000,0.000000,0.000000,0.000000,-0.000000,0.000000,0.000000,0.000000,0.000000,0.000000,0.000000,0.000000,0.000524,0.000000,0.000000,-0.000001,-0.000329,-0.000979,0.000000
1666148711.278952,,,,,,,,,,,,,,,,,,,,,,,,,,,,,,,,,,43787.000000,1661578071.711856,0.000000,0.000000,0.000000,0.000000,0.000000,0.000000,0.001000,0.000000,0.000000,0.000000,0.000000,1000000.000000,0.000000,0.000000,0.000000,1000000.000000,0.000000,0.000000,1000000.000000,0.000000,0.000000,0.000000,0.000000,1.000000,0.000000,0.000000,0.010052,0.000088,-0.000050,-0.000000,0.000000,0.000000,0.000000,0.000000,0.000000,0.000000,0.000000,0.001000,0.000000,0.000000,0.000000,0.000000,1000000.000000,0.000000,0.000000,0.000000,1000000.000000,0.000000,0.000000,1000000.000000,0.000000,0.000000,0.000000,0.000000,0.000000,0.000000,0.000000,0.000000,,,,,,,,,,,,,,,,,,,,,,,,,,,,,,,,,,,,,,,,,,,,,,,,,,,,,,,,,,,,
1666148711.294964,,,,,,,,,,,,,,,,,,,,,,,,,,,,,,,,,,,,,,,,,,,,,,,,,,,,,,,,,,,,,,,,,,,,,,,,,,,,,,,,,,,,,,,,,,,,,,50016.000000,1661578071.716856,27.228174,-0.000145,0.000000,0.000000,0.000000,0.000000,27.235324,0.000000,0.000000,0.000000,-0.000000,0.000000,-0.000000,0.000000,0.000000,0.000000,0.000000,0.000000,0.000000,0.000000,0.000000,0.000000,0.000000,0.999685,0.000000,0.000000,2.876748,0.025102,-0.056003,-0.057258,0.000000,0.000275,0.000000,0.000000,0.000000,0.000000,0.000000,0.000550,0.000000,0.000000,0.000000,0.000000,0.000000,-0.000000,0.000000,0.000000,0.000000,0.000000,0.000000,0.000000,0.000000,0.000218,0.000000,0.000000,-0.000002,-0.000145,-0.000398,0.000000
1666148711.296406,,,,,,,,,,,,,,,,,,,,,,,,,,,,,,,,,,,,,,,,,,,,,,,,,,,,,,,,,,,,,,,,,,,,,,,,,,,,,,,,,,,,,,,,,,,,,,50017.000000,1661578071.728856,27.228774,-0.000145,0.000000,0.000000,0.000000,0.000000,27.235925,0.000000,0.000000,0.000000,-0.000000,0.000000,-0.000000,0.000000,0.000000,0.000000,0.000000,0.000000,0.000000,0.000000,0.000000,0.000000,0.000000,0.999685,0.000000,0.000000,2.876751,0.025102,-0.056007,-0.057263,0.000000,0.000576,0.000000,0.000000,0.000000,0.000000,0.000000,0.000851,0.000000,0.000000,0.000000,0.000000,0.000000,-0.000000,0.000000,0.000000,0.000000,0.000000,0.000000,0.000000,0.000000,0.000450,0.000000,0.000000,-0.000009,-0.000342,-0.000564,0.000000
1666148711.306656,,,,,,,,,,,,,,,,,,,,,,,,,,,,,,,,,,,,,,,,,,,,,,,,,,,,,,,,,,,,,,,,,,,,,,,,,,,,,,,,,,,,,,,,,,,,,,50018.000000,1661578071.738856,27.229274,-0.000145,0.000000,0.000000,0.000000,0.000000,27.236425,0.000000,0.000000,0.000000,-0.000000,0.000000,-0.000000,0.000000,0.000000,0.000000,0.000000,0.000000,0.000000,0.000000,0.000000,0.000000,0.000000,0.999687,0.000000,0.000000,2.867036,0.025017,-0.056012,-0.057268,0.000000,0.000826,0.000000,0.000000,0.000000,0.000000,0.000000,0.001102,0.000000,0.000000,0.000000,0.000000,0.000000,-0.000000,0.000000,0.000000,0.000000,0.000000,0.000000,0.000000,0.000000,0.000633,0.000000,0.000000,-0.000021,-0.000527,-0.000662,0.000000
1666148711.323057,,,,,,,,,,,,,,,,,,,,,,,,,,,,,,,,,,43791.000000,1661578071.755856,0.000000,0.000000,0.000000,0.000000,0.000000,0.000000,0.001000,0.000000,0.000000,0.000000,0.000000,1000000.000000,0.000000,0.000000,0.000000,1000000.000000,0.000000,0.000000,1000000.000000,0.000000,0.000000,0.000000,0.000000,1.000000,0.000000,0.000000,0.010052,0.000088,-0.000050,-0.000000,0.000000,0.000000,0.000000,0.000000,0.000000,0.000000,0.000000,0.001000,0.000000,0.000000,0.000000,0.000000,1000000.000000,0.000000,0.000000,0.000000,1000000.000000,0.000000,0.000000,1000000.000000,0.000000,0.000000,0.000000,0.000000,0.000000,0.000000,0.000000,0.000000,,,,,,,,,,,,,,,,,,,,,,,,,,,,,,,,,,,,,,,,,,,,,,,,,,,,,,,,,,,,
1666148711.347085,,,,,,,,,,,,,,,,,,,,,,,,,,,,,,,,,,,,,,,,,,,,,,,,,,,,,,,,,,,,,,,,,,,,,,,,,,,,,,,,,,,,,,,,,,,,,,50022.000000,1661578071.782856,27.231474,-0.000145,0.000000,0.000000,0.000000,0.000000,27.238626,0.000000,0.000000,0.000000,-0.000000,0.000000,-0.000000,0.000000,0.000000,0.000000,0.000000,0.000000,0.000000,0.000000,0.000000,0.000000,0.000000,0.999687,0.000000,0.000000,2.867032,0.025017,-0.056024,-0.057283,0.000000,0.000952,0.000000,0.000000,0.000000,0.000000,0.000000,0.001242,0.000000,0.000000,0.000000,0.000000,0.000000,-0.000000,0.000000,0.000000,0.000000,0.000000,0.000000,0.000000,0.000000,0.000723,0.000000,0.000000,-0.000028,-0.000796,-0.001040,0.000000
1666148711.367098,,,,,,,,,,,,,,,,,,,,,,,,,,,,,,,,,,43794.000000,1661578071.799856,0.000000,0.000000,0.000000,0.000000,0.000000,0.000000,0.001000,0.000000,0.000000,0.000000,0.000000,1000000.000000,0.000000,0.000000,0.000000,1000000.000000,0.000000,0.000000,1000000.000000,0.000000,0.000000,0.000000,0.000000,1.000000,0.000000,0.000000,0.010052,0.000088,-0.000050,-0.000000,0.000000,0.000000,0.000000,0.000000,0.000000,0.000000,0.000000,0.001000,0.000000,0.000000,0.000000,0.000000,1000000.000000,0.000000,0.000000,0.000000,1000000.000000,0.000000,0.000000,1000000.000000,0.000000,0.000000,0.000000,0.000000,0.000000,0.000000,0.000000,0.000000,,,,,,,,,,,,,,,,,,,,,,,,,,,,,,,,,,,,,,,,,,,,,,,,,,,,,,,,,,,,
1666148711.369776,,,,,,,,,,,,,,,,,,,,,,,,,,,,,,,,,,43795.000000,1661578071.810856,0.000000,0.000000,0.000000,0.000000,0.000000,0.000000,0.001000,0.000000,0.000000,0.000000,0.000000,1000000.000000,0.000000,0.000000,0.000000,1000000.000000,0.000000,0.000000,1000000.000000,0.000000,0.000000,0.000000,0.000000,1.000000,0.000000,0.000000,0.010052,0.000088,-0.000050,-0.000000,0.000000,0.000000,0.000000,0.000000,0.000000,0.000000,0.000000,0.001000,0.000000,0.000000,0.000000,0.000000,1000000.000000,0.000000,0.000000,0.000000,1000000.000000,0.000000,0.000000,1000000.000000,0.000000,0.000000,0.000000,0.000000,0.000000,0.000000,0.000000,0.000000,,,,,,,,,,,,,,,,,,,,,,,,,,,,,,,,,,,,,,,,,,,,,,,,,,,,,,,,,,,,
1666148711.382294,,,,,,,,,,,,,,,,,,,,,,,,,,,,,,,,,,43796.000000,1661578071.821856,0.000000,0.000000,0.000000,0.000000,0.000000,0.000000,0.001000,0.000000,0.000000,0.000000,0.000000,1000000.000000,0.000000,0.000000,0.000000,1000000.000000,0.000000,0.000000,1000000.000000,0.000000,0.000000,0.000000,0.000000,1.000000,0.000000,0.000000,0.010052,0.000088,-0.000050,-0.000000,0.000000,0.000000,0.000000,0.000000,0.000000,0.000000,0.000000,0.001000,0.000000,0.000000,0.000000,0.000000,1000000.000000,0.000000,0.000000,0.000000,1000000.000000,0.000000,0.000000,1000000.000000,0.000000,0.000000,0.000000,0.000000,0.000000,0.000000,0.000000,0.000000,,,,,,,,,,,,,,,,,,,,,,,,,,,,,,,,,,,,,,,,,,,,,,,,,,,,,,,,,,,,
1666148711.391039,,,,,,,,,,,,,,,,,,,,,,,,,,,,,,,,,,,,,,,,,,,,,,,,,,,,,,,,,,,,,,,,,,,,,,,,,,,,,,,,,,,,,,,,,,,,,,50025.000000,1661578071.815856,27.233124,-0.000145,0.000000,0.000000,0.000000,0.000000,27.240276,0.000000,0.000000,0.000000,-0.000000,0.000000,-0.000000,0.000000,0.000000,0.000000,0.000000,0.000000,0.000000,0.000000,0.000000,0.000000,0.000000,0.999688,0.000000,0.000000,2.861246,0.024966,-0.056019,-0.057272,0.000000,0.000400,0.000000,0.000000,0.000000,0.000000,0.000000,0.000698,0.000000,0.000000,0.000000,0.000000,0.000000,-0.000000,0.000000,0.000000,0.000000,0.000000,0.000000,0.000000,0.000000,0.000316,0.000000,0.000000,-0.000002,-0.000359,-0.000600,0.000000
1666148711.396681,,,,,,,,,,,,,,,,,,,,,,,,,,,,,,,,,,,,,,,,,,,,,,,,,,,,,,,,,,,,,,,,,,,,,,,,,,,,,,,,,,,,,,,,,,,,,,50026.000000,1661578071.826856,27.233674,-0.000145,0.000000,0.000000,0.000000,0.000000,27.240826,0.000000,0.000000,0.000000,-0.000000,0.000000,-0.000000,0.000000,0.000000,0.000000,0.000000,0.000000,0.000000,0.000000,0.000000,0.000000,0.000000,0.999688,0.000000,0.000000,2.861246,0.024966,-0.056024,-0.057281,0.000000,0.000676,0.000000,0.000000,0.000000,0.000000,0.000000,0.000974,0.000000,0.000000,0.000000,0.000000,0.000000,-0.000000,0.000000,0.000000,0.000000,0.000000,0.000000,0.000000,0.000000,0.000524,0.000000,0.000000,-0.000005,-0.000609,-0.000884,0.000000
1666148711.406666,,,,,,,,,,,,,,,,,,,,,,,,,,,,,,,,,,,,,,,,,,,,,,,,,,,,,,,,,,,,,,,,,,,,,,,,,,,,,,,,,,,,,,,,,,,,,,50027.000000,1661578071.838856,27.234274,-0.000145,0.000000,0.000000,0.000000,0.000000,27.241427,0.000000,0.000000,0.000000,-0.000000,0.000000,-0.000000,0.000000,0.000000,0.000000,0.000000,0.000000,0.000000,0.000000,0.000000,0.000000,0.000000,0.999687,0.000000,0.000000,2.867029,0.025017,-0.056029,-0.057292,0.000000,0.000977,0.000000,0.000000,0.000000,0.000000,0.000000,0.001276,0.000000,0.000000,0.000000,0.000000,0.000000,-0.000000,0.000000,0.000000,0.000000,0.000000,0.000000,0.000000,0.000000,0.000742,0.000000,0.000000,0.000000,-0.000807,-0.001119,0.000000
1666148711.423100,,,,,,,,,,,,,,,,,,,,,,,,,,,,,,,,,,43799.000000,1661578071.854856,0.000000,0.000000,0.000000,0.000000,0.000000,0.000000,0.001000,0.000000,0.000000,0.000000,0.000000,1000000.000000,0.000000,0.000000,0.000000,1000000.000000,0.000000,0.000000,1000000.000000,0.000000,0.000000,0.000000,0.000000,1.000000,0.000000,0.000000,0.010052,0.000088,-0.000050,-0.000000,0.000000,0.000000,0.000000,0.000000,0.000000,0.000000,0.000000,0.001000,0.000000,0.000000,0.000000,0.000000,1000000.000000,0.000000,0.000000,0.000000,1000000.000000,0.000000,0.000000,1000000.000000,0.000000,0.000000,0.000000,0.000000,0.000000,0.000000,0.000000,0.000000,,,,,,,,,,,,,,,,,,,,,,,,,,,,,,,,,,,,,,,,,,,,,,,,,,,,,,,,,,,,
1666148711.451113,,,,,,,,,,,,,,,,,,,,,,,,,,,,,,,,,,,,,,,,,,,,,,,,,,,,,,,,,,,,,,,,,,,,,,,,,,,,,,,,,,,,,,,,,,,,,,50031.000000,1661578071.881856,27.236424,-0.000145,0.000000,0.000000,0.000000,0.000000,27.243577,0.000000,0.000000,0.000000,-0.000000,0.000000,-0.000000,0.000000,0.000000,0.000000,0.000000,0.000000,0.000000,0.000000,0.000000,0.000000,0.000000,0.999687,0.000000,0.000000,2.867014,0.025017,-0.056023,-0.057279,0.000000,0.000676,0.000000,0.000000,0.000000,0.000000,0.000000,0.001034,0.000000,0.000000,0.000000,0.000000,0.000000,-0.000000,0.000000,0.000000,0.000000,0.000000,0.000000,0.000000,0.000000,0.000524,0.000000,0.000000,0.000001,-0.000441,-0.000653,0.000000
1666148711.471125,,,,,,,,,,,,,,,,,,,,,,,,,,,,,,,,,,43803.000000,1661578071.909856,0.000000,0.000000,0.000000,0.000000,0.000000,0.000000,0.001000,0.000000,0.000000,0.000000,0.000000,1000000.000000,0.000000,0.000000,0.000000,1000000.000000,0.000000,0.000000,1000000.000000,0.000000,0.000000,0.000000,0.000000,1.000000,0.000000,0.000000,0.010052,0.000088,-0.000050,-0.000000,0.000000,0.000000,0.000000,0.000000,0.000000,0.000000,0.000000,0.001000,0.000000,0.000000,0.000000,0.000000,1000000.000000,0.000000,0.000000,0.000000,1000000.000000,0.000000,0.000000,1000000.000000,0.000000,0.000000,0.000000,0.000000,0.000000,0.000000,0.000000,0.000000,,,,,,,,,,,,,,,,,,,,,,,,,,,,,,,,,,,,,,,,,,,,,,,,,,,,,,,,,,,,
1666148711.499186,,,,,,,,,,,,,,,,,,,,,,,,,,,,,,,,,,,,,,,,,,,,,,,,,,,,,,,,,,,,,,,,,,,,,,,,,,,,,,,,,,,,,,,,,,,,,,50035.000000,1661578071.925856,27.238624,-0.000145,0.000000,0.000000,0.000000,0.000000,27.245778,0.000000,0.000000,0.000000,-0.000000,0.000000,-0.000000,0.000000,0.000000,0.000000,0.000000,0.000000,0.000000,0.000000,0.000000,0.000000,0.000000,0.999687,0.000000,0.000000,2.867014,0.025017,-0.056018,-0.057279,0.000000,0.000551,0.000000,0.000000,0.000000,0.000000,0.000000,0.000827,0.000000,0.000000,0.000000,0.000000,0.000000,-0.000000,0.000000,0.000000,0.000000,0.000000,0.000000,0.000000,0.000000,0.000431,0.000000,0.000000,-0.000001,-0.000201,-0.000447,0.000000
1666148711.518904,,,,,,,,,,,,,,,,,,,,,,,,,,,,,,,,,,43806.000000,1661578071.942856,0.000000,0.000000,0.000000,0.000000,0.000000,0.000000,0.001000,0.000000,0.000000,0.000000,0.000000,1000000.000000,0.000000,0.000000,0.000000,1000000.000000,0.000000,0.000000,1000000.000000,0.000000,0.000000,0.000000,0.000000,1.000000,0.000000,0.000000,0.010052,0.000088,-0.000050,-0.000000,0.000000,0.000000,0.000000,0.000000,0.000000,0.000000,0.000000,0.001000,0.000000,0.000000,0.000000,0.000000,1000000.000000,0.000000,0.000000,0.000000,1000000.000000,0.000000,0.000000,1000000.000000,0.000000,0.000000,0.000000,0.000000,0.000000,0.000000,0.000000,0.000000,,,,,,,,,,,,,,,,,,,,,,,,,,,,,,,,,,,,,,,,,,,,,,,,,,,,,,,,,,,,
1666148711.519547,,,,,,,,,,,,,,,,,,,,,,,,,,,,,,,,,,43807.000000,1661578071.953856,0.000000,0.000000,0.000000,0.000000,0.000000,0.000000,0.001000,0.000000,0.000000,0.000000,0.000000,1000000.000000,0.000000,0.000000,0.000000,1000000.000000,0.000000,0.000000,1000000.000000,0.000000,0.000000,0.000000,0.000000,1.000000,0.000000,0.000000,0.010052,0.000088,-0.000050,-0.000000,0.000000,0.000000,0.000000,0.000000,0.000000,0.000000,0.000000,0.001000,0.000000,0.000000,0.000000,0.000000,1000000.000000,0.000000,0.000000,0.000000,1000000.000000,0.000000,0.000000,1000000.000000,0.000000,0.000000,0.000000,0.000000,0.000000,0.000000,0.000000,0.000000,,,,,,,,,,,,,,,,,,,,,,,,,,,,,,,,,,,,,,,,,,,,,,,,,,,,,,,,,,,,
1666148711.532373,,,,,,,,,,,,,,,,,,,,,,,,,,,,,,,,,,43808.000000,1661578071.975856,0.000000,0.000000,0.000000,0.000000,0.000000,0.000000,0.001000,0.000000,0.000000,0.000000,0.000000,1000000.000000,0.000000,0.000000,0.000000,1000000.000000,0.000000,0.000000,1000000.000000,0.000000,0.000000,0.000000,0.000000,1.000000,0.000000,0.000000,0.010052,0.000088,-0.000050,-0.000000,0.000000,0.000000,0.000000,0.000000,0.000000,0.000000,0.000000,0.001000,0.000000,0.000000,0.000000,0.000000,1000000.000000,0.000000,0.000000,0.000000,1000000.000000,0.000000,0.000000,1000000.000000,0.000000,0.000000,0.000000,0.000000,0.000000,0.000000,0.000000,0.000000,,,,,,,,,,,,,,,,,,,,,,,,,,,,,,,,,,,,,,,,,,,,,,,,,,,,,,,,,,,,
1666148711.547127,,,,,,,,,,,,,,,,,,,,,,,,,,,,,,,,,,,,,,,,,,,,,,,,,,,,,,,,,,,,,,,,,,,,,,,,,,,,,,,,,,,,,,,,,,,,,,50040.000000,1661578071.980856,27.241375,-0.000145,0.000000,0.000000,0.000000,0.000000,27.248529,0.000000,0.000000,0.000000,-0.000000,0.000000,-0.000000,0.000000,0.000000,0.000000,0.000000,0.000000,0.000000,0.000000,0.000000,0.000000,0.000000,0.999687,0.000000,0.000000,2.867036,0.025017,-0.056034,-0.057287,0.000000,0.000952,0.000000,0.000000,0.000000,0.000000,0.000000,0.001242,0.000000,0.000000,0.000000,0.000000,0.000000,-0.000000,0.000000,0.000000,0.000000,0.000000,0.000000,0.000000,0.000000,0.000723,0.000000,0.000000,-0.000001,-0.000618,-0.000592,0.000000
1666148711.575102,,,,,,,,,,,,,,,,,,,,,,,,,,,,,,,,,,43811.000000,1661578072.008856,0.000000,0.000000,0.000000,0.000000,0.000000,0.000000,0.001000,0.000000,0.000000,0.000000,0.000000,1000000.000000,0.000000,0.000000,0.000000,1000000.000000,0.000000,0.000000,1000000.000000,0.000000,0.000000,0.000000,0.000000,1.000000,0.000000,0.000000,0.010052,0.000088,-0.000050,-0.000000,0.000000,0.000000,0.000000,0.000000,0.000000,0.000000,0.000000,0.001000,0.000000,0.000000,0.000000,0.000000,1000000.000000,0.000000,0.000000,0.000000,1000000.000000,0.000000,0.000000,1000000.000000,0.000000,0.000000,0.000000,0.000000,0.000000,0.000000,0.000000,0.000000,,,,,,,,,,,,,,,,,,,,,,,,,,,,,,,,,,,,,,,,,,,,,,,,,,,,,,,,,,,,
1666148711.591087,,,,,,,,,,,,,,,,,,,,,,,,,,,,,,,,,,,,,,,,,,,,,,,,,,,,,,,,,,,,,,,,,,,,,,,,,,,,,,,,,,,,,,,,,,,,,,50044.000000,1661578072.024856,27.243575,-0.000145,0.000000,0.000000,0.000000,0.000000,27.250730,0.000000,0.000000,0.000000,-0.000000,0.000000,-0.000000,0.000000,0.000000,0.000000,0.000000,0.000000,0.000000,0.000000,0.000000,0.000000,0.000000,0.999687,0.000000,0.000000,2.867036,0.025017,-0.056034,-0.057287,0.000000,0.000676,0.000000,0.000000,0.000000,0.000000,0.000000,0.000974,0.000000,0.000000,0.000000,0.000000,0.000000,-0.000000,0.000000,0.000000,0.000000,0.000000,0.000000,0.000000,0.000000,0.000524,0.000000,0.000000,0.000001,-0.000492,-0.000507,0.000000
1666148711.596476,,,,,,,,,,,,,,,,,,,,,,,,,,,,,,,,,,,,,,,,,,,,,,,,,,,,,,,,,,,,,,,,,,,,,,,,,,,,,,,,,,,,,,,,,,,,,,50045.000000,1661578072.035856,27.244125,-0.000145,0.000000,0.000000,0.000000,0.000000,27.251280,0.000000,0.000000,0.000000,-0.000000,0.000000,-0.000000,0.000000,0.000000,0.000000,0.000000,0.000000,0.000000,0.000000,0.000000,0.000000,0.000000,0.999687,0.000000,0.000000,2.867036,0.025017,-0.056045,-0.057294,0.000000,0.000952,0.000000,0.000000,0.000000,0.000000,0.000000,0.001250,0.000000,0.000000,0.000000,0.000000,0.000000,-0.000000,0.000000,0.000000,0.000000,0.000000,0.000000,0.000000,0.000000,0.000723,0.000000,0.000000,0.000001,-0.000857,-0.000662,0.000000
1666148711.606790,,,,,,,,,,,,,,,,,,,,,,,,,,,,,,,,,,,,,,,,,,,,,,,,,,,,,,,,,,,,,,,,,,,,,,,,,,,,,,,,,,,,,,,,,,,,,,50046.000000,1661578072.046856,27.244675,-0.000145,0.000000,0.000000,0.000000,0.000000,27.251831,0.000000,0.000000,0.000000,-0.000000,0.000000,-0.000000,0.000000,0.000000,0.000000,0.000000,0.000000,0.000000,0.000000,0.000000,0.000000,0.000000,0.999687,0.000000,0.000000,2.867055,0.025017,-0.056056,-0.057307,0.000000,0.001228,0.000000,0.000000,0.000000,0.000000,0.000000,0.001527,0.000000,0.000000,0.000000,0.000000,0.000000,-0.000000,0.000000,0.000000,0.000000,0.000000,0.000000,0.000000,0.000000,0.000908,0.000000,0.000000,-0.000004,-0.001132,-0.000914,0.000000
1666148711.623135,,,,,,,,,,,,,,,,,,,,,,,,,,,,,,,,,,43815.000000,1661578072.052856,0.000000,0.000000,0.000000,0.000000,0.000000,0.000000,0.001000,0.000000,0.000000,0.000000,0.000000,1000000.000000,0.000000,0.000000,0.000000,1000000.000000,0.000000,0.000000,1000000.000000,0.000000,0.000000,0.000000,0.000000,1.000000,0.000000,0.000000,0.010052,0.000088,-0.000050,-0.000000,0.000000,0.000000,0.000000,0.000000,0.000000,0.000000,0.000000,0.001000,0.000000,0.000000,0.000000,0.000000,1000000.000000,0.000000,0.000000,0.000000,1000000.000000,0.000000,0.000000,1000000.000000,0.000000,0.000000,0.000000,0.000000,0.000000,0.000000,0.000000,0.000000,,,,,,,,,,,,,,,,,,,,,,,,,,,,,,,,,,,,,,,,,,,,,,,,,,,,,,,,,,,,
1666148711.647116,,,,,,,,,,,,,,,,,,,,,,,,,,,,,,,,,,,,,,,,,,,,,,,,,,,,,,,,,,,,,,,,,,,,,,,,,,,,,,,,,,,,,,,,,,,,,,50049.000000,1661578072.079856,27.246325,-0.000145,0.000000,0.000000,0.000000,0.000000,27.253481,0.000000,0.000000,0.000000,-0.000000,0.000000,-0.000000,0.000000,0.000000,0.000000,0.000000,0.000000,0.000000,0.000000,0.000000,0.000000,0.000000,0.999687,0.000000,0.000000,2.867051,0.025017,-0.056047,-0.057296,0.000000,0.000676,0.000000,0.000000,0.000000,0.000000,0.000000,0.000944,0.000000,0.000000,0.000000,0.000000,0.000000,-0.000000,0.000000,0.000000,0.000000,0.000000,0.000000,0.000000,0.000000,0.000524,0.000000,0.000000,0.000002,-0.000737,-0.000701,0.000000
1666148711.666947,,,,,,,,,,,,,,,,,,,,,,,,,,,,,,,,,,43818.000000,1661578072.096856,0.000000,0.000000,0.000000,0.000000,0.000000,0.000000,0.001000,0.000000,0.000000,0.000000,0.000000,1000000.000000,0.000000,0.000000,0.000000,1000000.000000,0.000000,0.000000,1000000.000000,0.000000,0.000000,0.000000,0.000000,1.000000,0.000000,0.000000,0.010052,0.000088,-0.000050,-0.000000,0.000000,0.000000,0.000000,0.000000,0.000000,0.000000,0.000000,0.001000,0.000000,0.000000,0.000000,0.000000,1000000.000000,0.000000,0.000000,0.000000,1000000.000000,0.000000,0.000000,1000000.000000,0.000000,0.000000,0.000000,0.000000,0.000000,0.000000,0.000000,0.000000,,,,,,,,,,,,,,,,,,,,,,,,,,,,,,,,,,,,,,,,,,,,,,,,,,,,,,,,,,,,
1666148711.669553,,,,,,,,,,,,,,,,,,,,,,,,,,,,,,,,,,43819.000000,1661578072.107856,0.000000,0.000000,0.000000,0.000000,0.000000,0.000000,0.001000,0.000000,0.000000,0.000000,0.000000,1000000.000000,0.000000,0.000000,0.000000,1000000.000000,0.000000,0.000000,1000000.000000,0.000000,0.000000,0.000000,0.000000,1.000000,0.000000,0.000000,0.010052,0.000088,-0.000050,-0.000000,0.000000,0.000000,0.000000,0.000000,0.000000,0.000000,0.000000,0.001000,0.000000,0.000000,0.000000,0.000000,1000000.000000,0.000000,0.000000,0.000000,1000000.000000,0.000000,0.000000,1000000.000000,0.000000,0.000000,0.000000,0.000000,0.000000,0.000000,0.000000,0.000000,,,,,,,,,,,,,,,,,,,,,,,,,,,,,,,,,,,,,,,,,,,,,,,,,,,,,,,,,,,,
1666148711.682142,,,,,,,,,,,,,,,,,,,,,,,,,,,,,,,,,,43820.000000,1661578072.118856,0.000000,0.000000,0.000000,0.000000,0.000000,0.000000,0.001000,0.000000,0.000000,0.000000,0.000000,1000000.000000,0.000000,0.000000,0.000000,1000000.000000,0.000000,0.000000,1000000.000000,0.000000,0.000000,0.000000,0.000000,1.000000,0.000000,0.000000,0.010052,0.000088,-0.000050,-0.000000,0.000000,0.000000,0.000000,0.000000,0.000000,0.000000,0.000000,0.001000,0.000000,0.000000,0.000000,0.000000,1000000.000000,0.000000,0.000000,0.000000,1000000.000000,0.000000,0.000000,1000000.000000,0.000000,0.000000,0.000000,0.000000,0.000000,0.000000,0.000000,0.000000,,,,,,,,,,,,,,,,,,,,,,,,,,,,,,,,,,,,,,,,,,,,,,,,,,,,,,,,,,,,
1666148711.691035,,,,,,,,,,,,,,,,,,,,,,,,,,,,,,,,,,,,,,,,,,,,,,,,,,,,,,,,,,,,,,,,,,,,,,,,,,,,,,,,,,,,,,,,,,,,,,50053.000000,1661578072.123856,27.248525,-0.000145,0.000000,0.000000,0.000000,0.000000,27.255681,0.000000,0.000000,0.000000,-0.000000,0.000000,-0.000000,0.000000,0.000000,0.000000,0.000000,0.000000,0.000000,0.000000,0.000000,0.000000,0.000000,0.999687,0.000000,0.000000,2.867032,0.025017,-0.056048,-0.057305,0.000000,0.000676,0.000000,0.000000,0.000000,0.000000,0.000000,0.001012,0.000000,0.000000,0.000000,0.000000,0.000000,-0.000000,0.000000,0.000000,0.000000,0.000000,0.000000,0.000000,0.000000,0.000524,0.000000,0.000000,0.000003,-0.000625,-0.000832,0.000000
